city,review_count,name,neighbourhood,type,business_id,full_address,state,longitude,stars,latitude,open,categories
Glendale Az,14,Hot Bagels & Deli,[],business,PzOqRohWw7F7YEPBz6AubA,"6520 W Happy Valley Rd Ste 101 Glendale Az, AZ 85310",AZ,-112.200264,3.5,33.712797,TRUE,"[u'Food', u'Bagels', u'Delis', u'Restaurants']"
Gilbert,10,Jersey Mike's Subs,[],business,qarobAbxGSHI7ygf1f7a_Q,"891 E Baseline Rd Suite 102 Gilbert, AZ 85233",AZ,-111.8120071,3.5,33.3788385,TRUE,"[u'Sandwiches', u'Restaurants']"
Phoenix,5,La Paloma Mexican Food,[],business,gA5CuBxF-0CnOpGnryWJdQ,"519 W Thomas Rd Phoenix, AZ 85013",AZ,-112.0813612,4,33.480105,TRUE,"[u'Mexican', u'Restaurants']"
Scottsdale,55,Sauce,[],business,JxVGJ9Nly2FFIs_WpJvkug,"14418 N Scottsdale Rd Suite 181 Scottsdale, AZ 85254",AZ,-111.926272,4,33.6174589,TRUE,"[u'Pizza', u'Restaurants']"
Phoenix,23,Fuddruckers,[],business,Jj7bcQ6NDfKoz4TXwvYfMg,"8941 N Black Canyon Hwy Phoenix, AZ 85021",AZ,-112.116243,4,33.566989,TRUE,"[u'Burgers', u'Restaurants']"
Phoenix,42,China Chan Restaurant,[],business,yOYFhiTjT-SM4spKtDk92w,"10227 N Metro Pkwy E Phoenix, AZ 85051",AZ,-112.120516,3.5,33.5803589,FALSE,"[u'Buffets', u'Dim Sum', u'Chinese', u'Restaurants']"
Scottsdale,3,McDonald's,[],business,4IAzFJ159GEaIGX1-y6Bmw,"9251 E Shea Blvd Scottsdale, AZ 85258",AZ,-111.881625,2.5,33.581867,TRUE,"[u'Burgers', u'Fast Food', u'Restaurants']"
Scottsdale,85,Nimbus American Bistro N' Brewery,[],business,MLAnvEcvDfOWELHUN_0xEw,"7001 N Scottsdale Rd Ste 147 Scottsdale, AZ 85253",AZ,-111.9641728,3,33.5388471,FALSE,"[u'Food', u'Breweries', u'American (New)', u'Restaurants']"
Scottsdale,9,Peter Piper Pizza,[],business,JHp5mJvYe6UtM_QsklR-iw,"7607 E McDowell Road Suite 101 Scottsdale, AZ 85257",AZ,-111.9175425,3,33.4661264,TRUE,"[u'Pizza', u'Restaurants']"
Gila Bend,10,Sofia's Mexican Food,[],business,sygb2W4NRadVXiWhW8bnFQ,"616 E Pima Street Gila Bend, AZ 85337",AZ,-112.7113217,3.5,32.9482948,TRUE,"[u'Mexican', u'Restaurants']"
Phoenix,9,Meatballz,[],business,JvJjaTJCyUGu5SDpoJWvZg,"1930 W Pinnacle Peak Rd Ste 119 Phoenix, AZ 85027",AZ,-112.101312,3,33.6988429,FALSE,"[u'Caterers', u'Restaurants', u'Event Planning & Services', u'Italian']"
Phoenix,27,Panda Garden,[],business,507GX11jtCsVYlzaur05_w,"4730 E Warner Rd Phoenix, AZ 85044",AZ,-111.983142,4,33.333182,TRUE,"[u'Chinese', u'Restaurants']"
Chandler,3,Ruby's Diner,[],business,GhC1V0MRGoma3MP0Gn28Fw,"3111 W Chandler Blvd Ste 2146 Chandler, AZ 85226",AZ,-111.897553,4.5,33.305681,FALSE,[u'Restaurants']
Phoenix,38,Lenny's Burger Shop,[],business,reMYkuDhLk4raAviOFtvOQ,"13616 N 35th Ave Ste 1 Phoenix, AZ 85029",AZ,-112.119087,4,33.597474,TRUE,"[u'Burgers', u'Restaurants']"
Mesa,3,Yee-haws,[],business,MG1IbQUurcXn8NQgXGM34Q,"4410 E University Dr Mesa, AZ 85205",AZ,-111.735789,3.5,33.423805,TRUE,"[u'Delis', u'Restaurants']"
Phoenix,3,Panda Gourmet,[],business,KqYY2rwD8ymjU9mVJwiuRQ,"9020 N 19th Ave Phoenix, AZ 85021",AZ,-112.0998396,3.5,33.5682973,TRUE,"[u'Chinese', u'Restaurants']"
Scottsdale,52,Five Guys Burger and Fries,[],business,jvvh4Q00Hq2XyIcfmAAT2A,"7014-590 E Camelback Rd Scottsdale, AZ 85251",AZ,-111.9284569,3.5,33.503323,TRUE,"[u'Burgers', u'Restaurants']"
Tempe,106,Forefathers Gourmet Cheesesteaks & Fries,[],business,RtwOc-n_RkiUuDGaNfCsNw,"8707 S Priest Dr Ste 101 Tempe, AZ 85284",AZ,-111.9631173,4,33.3351559,TRUE,"[u'Cheesesteaks', u'Sandwiches', u'Restaurants']"
Phoenix,3,Subway,[],business,0YCV8260mMgN0PxuzAtO3g,"144 N Central Ave Phoenix, AZ 85004",AZ,-112.0740911,2.5,33.4503008,TRUE,"[u'Fast Food', u'Sandwiches', u'Restaurants']"
Phoenix,3,Blimpie Subs & Salads,[],business,NtizlEdtnJX0tteMdZ-6tw,"4267 W Thunderbird Road Phoenix, AZ 85053",AZ,-112.1505433,3,33.6106566,TRUE,[u'Restaurants']
Tempe,580,Cornish Pasty Company,[],business,WNy1uzcmm_UHmTyR--o5IA,"960 W University Dr Tempe, AZ 85281",AZ,-111.951494,4.5,33.422728,TRUE,"[u'Pubs', u'Bars', u'Nightlife', u'British', u'Restaurants']"
Glendale,7,Chuck E Cheese,[],business,woihBX8gAaEDL4nWtao9dg,"6773 W Bell Road Glendale, AZ 85308",AZ,-112.2051629,2,33.6380899,TRUE,"[u'Arts & Entertainment', u'Pizza', u'Arcades', u'Restaurants']"
Phoenix,54,Kampai,[],business,0BpMvu5B9fY-KEbOuxLtFQ,"2945 E Bell Rd Ste 102 Phoenix, AZ 85032",AZ,-112.0191651,3.5,33.6399519,TRUE,"[u'Japanese', u'Restaurants']"
Scottsdale,69,Five Guys Burgers and Fries,[],business,jqZKv-7F54guDLalXEjHxg,"15435 N Scottsdale Rd Ste 100 Scottsdale, AZ 85260",AZ,-111.9254565,3.5,33.6265775,TRUE,"[u'Burgers', u'Restaurants']"
Phoenix,24,Paradise Bakery & Cafe,[],business,dzSPa5kkpQIRjMOHvDUF_Q,"2370 W Happy Valley Rd Phoenix, AZ 85085",AZ,-112.1117309,3.5,33.7129653,TRUE,"[u'Bakeries', u'Food', u'Sandwiches', u'Restaurants']"
Scottsdale,13,Sonic Drive-In,[],business,kIco4kv-FHT6QqdkDQ2cow,"2870 N Hayden Rd Scottsdale, AZ 85257",AZ,-111.9093213,3.5,33.4796348,TRUE,"[u'American (Traditional)', u'Fast Food', u'Restaurants']"
Chandler,22,Draft House On The Reef,[],business,2qbajPD8M7PJlWWaHSRR5Q,"393 W Warner Rd Chandler, AZ 85225",AZ,-111.8463705,3.5,33.3344463,TRUE,"[u'Dive Bars', u'Bars', u'American (Traditional)', u'Nightlife', u'Restaurants']"
Mesa,47,Giant Hamburgers,[],business,AoO0FJyUm01lmIJJTcPWEQ,"2753 E Broadway Ste 104 Mesa, AZ 85204",AZ,-111.7716542,4,33.4064076,TRUE,"[u'Burgers', u'Restaurants']"
Phoenix,17,Tee Pee Tap Room,[],business,eK6KGMKqU_4nB9RdayZD7Q,"602 E Lincoln St Phoenix, AZ 85004",AZ,-112.0657857,3,33.4423368,TRUE,"[u'Mexican', u'Restaurants']"
Scottsdale,70,Cold Beers & Cheeseburgers,[],business,umdxfhSlk67yGEi8-S-bEg,"20831 N Scottsdale Rd Ste 117 Scottsdale, AZ 85255",AZ,-111.9246769,3,33.6765685,TRUE,"[u'Burgers', u'American (Traditional)', u'Restaurants']"
Phoenix,18,Jody Maroni's Sausage Kingdom,[],business,YowLDN2YEKVJpHv0Loqm5A,"Sky Harbor Airport - Terminal 4 3400 Sky Harbor Blvd Phoenix, AZ 85034",AZ,-112.0178286,2.5,33.4382789,TRUE,"[u'Hot Dogs', u'Restaurants']"
Phoenix,58,5th Avenue Cafe,[],business,HQFscafV3wi5z4yOKdUGRg,"501 W Thomas Rd Phoenix, AZ 85013",AZ,-112.080631,3.5,33.480016,TRUE,"[u'Breakfast & Brunch', u'Diners', u'Restaurants']"
Phoenix,549,Gallo Blanco Cafe,[],business,#NAME?,"401 W Clarendon Ave Phoenix, AZ 85013",AZ,-112.079081,4,33.49112,TRUE,"[u'Mexican', u'Restaurants']"
Phoenix,4,Turk's Fish and Chips,[],business,hBodj_f6adUAnEVUb_he_A,"6607 S Central Ave Phoenix, AZ 85042",AZ,-112.073079,2.5,33.386417,TRUE,"[u'American (Traditional)', u'Restaurants']"
Mesa,5,Souper Salad,[],business,1J1iid_qU__8_CxiS2Zw4Q,"1457 W Southern Ave Mesa, AZ 85202",AZ,-111.862526,3,33.3925142,FALSE,"[u'Buffets', u'Restaurants']"
Tempe,9,Port of Subs,[],business,6ZYt8IChJmH3Ra5IqnlivA,"1342 W Warner Rd Tempe, AZ 85281",AZ,-111.9619158,2.5,33.3345479,TRUE,"[u'Sandwiches', u'Restaurants']"
Tempe,28,Sushi Time,[],business,y8a480EiwWikqlR1inkGxg,"5136 S Rural Rd Tempe, AZ 85282",AZ,-111.9285013,3.5,33.3792532,TRUE,"[u'Sushi Bars', u'Restaurants']"
Mesa,4,Ub's Restaurant & Bar,[],business,qgVS6sBe7JNEI8otg0Y3dg,"1911 W Broadway Rd Ste 1 Mesa, AZ 85202",AZ,-111.872612,3.5,33.407138,TRUE,"[u'American (Traditional)', u'Restaurants']"
Tempe,108,Z'Tejas Southwestern Grill,[],business,hyff2JyqQgf85MaJZslHCg,"20 W 6th St Tempe, AZ 85281",AZ,-111.9409053,3.5,33.4245625,TRUE,"[u'Tex-Mex', u'Restaurants']"
Mesa,30,Matta's Grill and Cantina,[],business,qBc36uFI7orWS8NpYZCv_w,"1033 N Dobson Rd Suite 101 Mesa, AZ 85201",AZ,-111.8660545,3.5,33.435166,TRUE,"[u'Mexican', u'Restaurants']"
Phoenix,31,Zaytoon Kabob Bistro,[],business,6lcay-E_ssmzpGanKbColg,"4811 N 16th St Ste 104 Phoenix, AZ 85016",AZ,-112.047066,3,33.507549,TRUE,"[u'Mediterranean', u'Restaurants']"
Phoenix,6,Del Taco,[],business,sH17KGxbMVrlr66n92Qh8g,"16649 N Tatum Blvd Phoenix, AZ 85032",AZ,-111.977264,3,33.638672,TRUE,"[u'Fast Food', u'Mexican', u'Restaurants']"
Phoenix,326,Windsor,[],business,FURgKkRFtMK5yKbjYZVVwA,"5223 N Central Ave Phoenix, AZ 85012",AZ,-112.0734119,4,33.51369719,TRUE,"[u'American (New)', u'Restaurants']"
Tempe,7,Taco del Mar,[],business,Fb_mZcgCgvK60E3hymcpyw,"1804 E Southern Ave Tempe, AZ 85282",AZ,-111.9080584,3.5,33.3931628,FALSE,"[u'Mexican', u'Restaurants']"
Phoenix,5,Burger Betty's,[],business,OwHqwmHwswArpv3m3dlw_Q,"5111 N 7th St Phoenix, AZ 85014",AZ,-112.06434,2.5,33.511332,FALSE,"[u'Bars', u'Food', u'Beer, Wine & Spirits', u'Breakfast & Brunch', u'Burgers', u'Gay Bars', u'Nightlife', u'Restaurants']"
Phoenix,12,Nathans Famous Hotdogs,[],business,kMxYp2GZL5ic6b05gPP57Q,"3800 W Sky Harbor Blvd T4/S3 Phoenix, AZ 85034",AZ,-111.9969141,2,33.4341095,TRUE,"[u'Hot Dogs', u'Restaurants']"
Glendale,40,Oscar's Pier 83 fish and chips,[],business,bzXDUQ-5Odzx5WZNoSoANg,"18589 N. 59th avenue Glendale, AZ 85308",AZ,-112.184993,4,33.65316,TRUE,"[u'Fish & Chips', u'Restaurants']"
Phoenix,121,Great Wall Cuisine,[],business,0db71MbrvcJnyk71COCJBg,"5057 N 35th Ave Phoenix, AZ 85017",AZ,-112.134201,3.5,33.5108735,TRUE,"[u'Chinese', u'Restaurants']"
Scottsdale,5,Java Me Craze',[],business,WVs0Q355wHQ4d1KZOHReZA,"6900 E Camelback Rd Ste A38 Scottsdale, AZ 85251",AZ,-111.9315649,4.5,33.502612,TRUE,"[u'Food', u'Coffee & Tea', u'Sandwiches', u'Restaurants']"
Goodyear,3,KFC,[],business,8HmSt7fRFe-uH6i4yCmJQQ,"1470 N Dysart Rd Goodyear, AZ 85338",AZ,-112.3411836,1,33.4517561,TRUE,"[u'Fast Food', u'Restaurants']"
Mesa,21,Burrito Express,[],business,qdA4qiSXjaiuqO4SueH9VA,"450 N Alma School R Mesa, AZ 85201",AZ,-111.8564229,3.5,33.4234775,TRUE,"[u'Mexican', u'Restaurants']"
Chandler,3,Uno Stop,[],business,qnKX52X6N9tp5qcK3QankA,"30 W Galveston St Chandler, AZ 85225",AZ,-111.8425,4.5,33.313742,TRUE,"[u'Dry Cleaning & Laundry', u'Food', u'Local Services', u'Convenience Stores', u'Korean', u'Restaurants']"
Glendale,3,Tortas La Presa #2,[],business,3VTBObOAUyDQfpsndTz_pg,"4425 W Glendale Avenue Glendale, AZ 85301",AZ,-112.1542252,3.5,33.5384488,TRUE,"[u'Mexican', u'Restaurants']"
Tempe,12,Tailgate Sports Bar & Grill,[],business,h-9z4dgdEghdPLeDMLpDYA,"930 W Broadway Rd Tempe, AZ 85282",AZ,-111.952872,4,33.407724,TRUE,"[u'Bars', u'Restaurants', u'American (Traditional)', u'Sports Bars', u'Nightlife']"
Gilbert,3,Chipotle,[],business,In93N5Jqu85xAh0qQ2jb1w,"2224 E Williams Field Rd Gilbert, AZ 85297",AZ,-111.7428631,3.5,33.30780509,TRUE,"[u'Mexican', u'Restaurants']"
Tempe,4,Boston Market,[],business,nih6RQC-HttWiO28HOcfOA,"3435 S McClintock Dr Tempe, AZ 85282",AZ,-111.9089862,3.5,33.3912468,TRUE,"[u'American (Traditional)', u'Comfort Food', u'Caterers', u'Event Planning & Services', u'Restaurants']"
Tempe,89,Picazzo's Organic Italian Kitchen,[],business,3jqOv6re-xPYOg7srmi7tg,"440 W Warner Rd Tempe, AZ 85284",AZ,-111.9445728,4,33.3350531,FALSE,"[u'Pizza', u'Restaurants']"
Surprise,3,Jack in the Box,[],business,h_FP6Lho52MIorjH8GuerQ,"16760 W Bell Rd Surprise, AZ 85374",AZ,-112.419796,3,33.639044,TRUE,"[u'Fast Food', u'Restaurants']"
Phoenix,4,Jack in the Box,[],business,rSZj7lgBxREaMhGMnjuZ3g,"4741 E McDowell Rd Phoenix, AZ 85008",AZ,-111.978816,3,33.465334,TRUE,"[u'Fast Food', u'Restaurants']"
Surprise,29,NYPD Pizza,[],business,kN8792XEJfCtpD5GJLmI6g,"13980 W Bell Rd Ste 1 Surprise, AZ 85374",AZ,-112.361552,4,33.64032,TRUE,"[u'Italian', u'Pizza', u'Restaurants']"
Phoenix,22,Mel's Diner,[],business,lnX2gaGdO0fNtykyFrp1AA,"1747 Grand Ave Phoenix, AZ 85007",AZ,-112.0981742,3.5,33.4643554,TRUE,"[u'American (Traditional)', u'Diners', u'Restaurants']"
Scottsdale,9,LV Bistro,[],business,oRwWdpARqCjam6k_za8wOA,"The Scottsdale Princess Hotel 7575 E. Princess Drive Scottsdale, AZ 85255",AZ,-111.9189477,2.5,33.6462961,TRUE,"[u'American (Traditional)', u'Restaurants']"
Chandler,22,Siracha Lounge,[],business,um2sEf_ITsCc536kPQ6Umg,"91 W Boston St Chandler, AZ 85224",AZ,-111.8426724,3.5,33.3021786,FALSE,"[u'Sushi Bars', u'Nightlife', u'Restaurants']"
Scottsdale,3,Pizza Hut,[],business,Xn06AozwcTvUPFNkknbgnw,"11291 E Via Linda Ste 128 Scottsdale, AZ 85259",AZ,-111.8373499,3,33.58710962,TRUE,"[u'Fast Food', u'Pizza', u'Restaurants']"
Casa Grande,11,China Buffet,[],business,WxLMUX59m6sSszVNLnHDEw,"1677 E Florence Boulevard Casa Grande, AZ 85222",AZ,-111.7157877,3,32.8786089,TRUE,"[u'Buffets', u'Chinese', u'Restaurants']"
Phoenix,23,Smashburger,[],business,qAORECtABjr_FsvSzy1apw,"21001 N  Tatum Blvd Ste 34-1140 Phoenix, AZ 85050",AZ,-111.9746066,3,33.678615,TRUE,"[u'Burgers', u'American (Traditional)', u'Hot Dogs', u'Restaurants']"
Phoenix,3,Fuddruckers,[],business,#NAME?,"1928 E Highland Ave Phoenix, AZ 85016",AZ,-112.040429,4,33.5056919,FALSE,"[u'Burgers', u'Restaurants']"
Gilbert,15,Native New Yorker,[],business,aZFxdrDmfO10e3k2LNNFPw,"110 S Val Vista Dr Gilbert, AZ 85296",AZ,-111.756931,3.5,33.347758,FALSE,"[u'American (Traditional)', u'Restaurants']"
Scottsdale,28,Tokyo Express,[],business,EuNV8_SReV_3KeET2Ums6A,"3530 N Goldwater Blvd Scottsdale, AZ 85251",AZ,-111.9271068,3,33.4892464,TRUE,"[u'Fast Food', u'Sushi Bars', u'Japanese', u'Restaurants']"
Phoenix,6,Weather & Coffee,[],business,QQ-lSbz4ARm1MQA5z8-nAw,"3607 East Bell Road, Ste. #1 Phoenix, AZ 85032",AZ,-112.004291,4.5,33.640076,FALSE,"[u'Food', u'Coffee & Tea', u'Sandwiches', u'Restaurants']"
Scottsdale,7,Jack-In-the Box,[],business,_dVPzYGXKNg2rIsc40VtyA,"8030 E Indian School Rd Scottsdale, AZ 85251",AZ,-111.9078794,2.5,33.4952011,TRUE,"[u'Fast Food', u'Restaurants']"
Goodyear,44,Akai Hana Sushi & Grill,[],business,x0NOgX6P4x-82cC0kcO1hg,"2293 N Pebble Creek Pkwy Ste 101 Goodyear, AZ 85338",AZ,-112.3920143,4,33.47209058,TRUE,"[u'Sushi Bars', u'Restaurants']"
Glendale,12,Brother's Pizza,[],business,Dim6R6ki5Z_05bk_V1htbQ,"6635 W Happy Valley Road Suite A104 Glendale, AZ 85310",AZ,-112.202473,3,33.710671,TRUE,"[u'Pizza', u'Restaurants']"
Scottsdale,26,Ocean Trail,[],business,e8Eke5v8pXw-PuRCu2uPjg,"Talking Stick Resort 9800 E Indian Bend Rd Scottsdale, AZ 85256",AZ,-111.865693,5,33.538873,TRUE,"[u'Seafood', u'Cajun/Creole', u'Restaurants']"
Phoenix,7,Papa John's,[],business,JUe_TAe9T9MZXutb5fblDg,"231 W Thomas Rd Phoenix, AZ 85013",AZ,-112.077889,2.5,33.4802381,TRUE,"[u'Pizza', u'Restaurants']"
Phoenix,141,Pomegranate Cafe,[],business,lVkDZZ8sTafPlq7f1i5row,"4025 E Chandler Blvd Ste 28 Phoenix, AZ 85048",AZ,-111.99506,4,33.3051122,TRUE,"[u'Food', u'Coffee & Tea', u'Breakfast & Brunch', u'Vegan', u'Restaurants']"
Apache Junction,6,Grand Buffet,[],business,u2hGxSbpIOZZ3KliIELuTQ,"2430 W Apache Trl Apache Junction, AZ 85220",AZ,-111.5722283,2.5,33.4160688,TRUE,"[u'Chinese', u'Restaurants']"
Goodyear,9,Picazzo's Gourmet Pizza,[],business,SDs4eWoV-cpJystzTAH0qg,"14970 W Indian School Rd Goodyear, AZ 85395",AZ,-112.380047,3,33.492737,FALSE,"[u'Restaurants', u'Pizza', u'Italian']"
Scottsdale,6,Port of Subs and Smoothie King,[],business,cof7qW-PD0M7Jykclg48oQ,"3737 N Scottsdale Rd Scottsdale, AZ 85251",AZ,-111.9258402,3.5,33.4916179,FALSE,"[u'Health Markets', u'Food', u'Restaurants', u'Sandwiches', u'Specialty Food']"
Chandler,65,Mikado Sushi,[],business,cfy-C6XNFt-F-dCQfK7EDQ,"3125 S Alma School Rd Chandler, AZ 85248",AZ,-111.857235,4,33.261388,TRUE,"[u'Sushi Bars', u'Restaurants']"
Goodyear,5,Schlotzsky's,[],business,#NAME?,"395 N Litchfield Rd Goodyear, AZ 85338",AZ,-112.357595,3.5,33.451414,TRUE,"[u'Sandwiches', u'Restaurants']"
Phoenix,8,Little Dragon Chinese Restaurant,[],business,LeTMz4hrsdHhiS-vNBj82A,"4327 W Thomas Road Phoenix, AZ 85031",AZ,-112.1530731,4.5,33.4803555,TRUE,"[u'Chinese', u'Restaurants']"
Scottsdale,107,American Junkie,[],business,-9pVS__IliMA2aNEYzrQrg,"4363 N 75th St Scottsdale, AZ 85251",AZ,-111.919817,3,33.500169,TRUE,"[u'Nightlife', u'Bars', u'American (Traditional)', u'Sports Bars', u'Restaurants']"
Phoenix,14,Port of Subs,[],business,wzQAmzQopWcfoCG8lfiE_w,"1855 W Deer Valley Rd Phoenix, AZ 85027",AZ,-112.098958,3,33.683666,TRUE,"[u'Delis', u'Sandwiches', u'Restaurants']"
Phoenix,21,Greek Patio,[],business,Gw8DsQQCO5m1hggXqwynFg,"402 E Greenway Blvd Phoenix, AZ 85073",AZ,-112.0739,3,33.4499,TRUE,"[u'Greek', u'Mediterranean', u'Restaurants']"
Phoenix,11,Culver's,[],business,zwHM6hz8swKIG-4-BSKMPA,"4506 E Cactus Rd Phoenix, AZ 85032",AZ,-111.9862419,3.5,33.5998438,TRUE,"[u'Food', u'Burgers', u'Sandwiches', u'Ice Cream & Frozen Yogurt', u'Restaurants']"
Phoenix,4,TGI Friday's,[],business,Q5diW79GD0MSJ10j1HCf8Q,"11025 N Black Canyon Hwy Phoenix, AZ 85073",AZ,-112.11578,1,33.586891,FALSE,"[u'American (Traditional)', u'American (New)', u'Restaurants']"
Phoenix,3,Panda Express,[],business,LtdVdYhs7MAwwTBuHhdsFQ,"5229 W Indian School Rd Phoenix, AZ 85031",AZ,-112.1696984,2,33.4950075,TRUE,"[u'Fast Food', u'Chinese', u'Restaurants']"
Scottsdale,15,The Corn Flower,[],business,7vz3HGtHzvz1JjiphH9uOQ,"4807 E Greenway Rd Ste 5 Scottsdale, AZ 85254",AZ,-111.977313,4,33.625322,TRUE,"[u'Mexican', u'Restaurants']"
Cave Creek,8,Rosati's Pizza,[],business,4KYZxeMyZ5YUp5GvmmCd-Q,"28325 N Tatum Blvd Cave Creek, AZ 85331",AZ,-111.977509,3,33.742499,TRUE,"[u'Pizza', u'Restaurants']"
Mesa,3,Gusto's Pizza,[],business,TI-4Yp-hvVimC3LJP0f59Q,"1620 W University Dr Mesa, AZ 85201",AZ,-111.8660527,3.5,33.4221397,FALSE,"[u'Pizza', u'Restaurants']"
Chandler,4,Sub Zone,[],business,d4-PiJfqs-_ChKyWuoa0_Q,"2080 N Dobson Rd Chandler, AZ 85224",AZ,-111.876964,4.5,33.33652,TRUE,"[u'Sandwiches', u'Restaurants']"
Tempe,88,Macayo's Depot Cantina,[],business,FG_GRMLSj68ximzfrr9eWw,"300 S Ash Ave Tempe, AZ 85281",AZ,-111.943236,2.5,33.427732,TRUE,"[u'Mexican', u'Restaurants']"
Chandler,35,Rumbi Island Grill,[],business,jj-K19oswZARMwCQK-b37A,"885 N 54th St Chandler, AZ 85226",AZ,-111.9684653,4,33.3173142,TRUE,"[u'Caribbean', u'Restaurants']"
Surprise,72,Big Buddha,[],business,mjoxSQR7bFQtlIIjfNfaSQ,"16572 W Greenway Rd Ste 115 Surprise, AZ 85388",AZ,-112.4159659,4,33.6239817,TRUE,"[u'Chinese', u'Restaurants']"
Tempe,477,Green,[],business,c1yGkETheht_1vjda7G5sA,"2240 N Scottsdale Rd Tempe, AZ 85281",AZ,-111.927166,4.5,33.4537869,TRUE,"[u'Vegetarian', u'Vegan', u'Restaurants']"
Chandler,50,Tokyo House,[],business,l1kqHWtICTNk8TdCNisf5A,"2050 N Alma School Rd Ste 5 Chandler, AZ 85224",AZ,-111.8594885,4.5,33.33657881,TRUE,"[u'Japanese', u'Restaurants']"
Gilbert,3,Chef H,[],business,NB3Oli21be-k4r_iy4oC0Q,"3107 S Lindsay Rd Gilbert, AZ 85296",AZ,-111.773654,3.5,33.293754,FALSE,"[u'Greek', u'Mediterranean', u'Restaurants']"
Maricopa,7,Romy's BBQ,[],business,vJ_mfmsWhFJBVNztbk003g,"44301 W Maricopa Casa Grande Hwy Maricopa, AZ 85239",AZ,-112.043887,4.5,33.0546833,TRUE,"[u'Barbeque', u'Restaurants']"
Phoenix,4,Jack-In-the Box Drive Thru,[],business,tEvGNTPLV01OiUt_SKn2Ww,"1802 W Bell Road Phoenix, AZ 85023",AZ,-112.097743,4,33.640581,TRUE,[u'Restaurants']
Scottsdale,4,Dairy Queen,[],business,Pl1qDTX90DSLHo-ZAlAh9w,"2230 N Scottsdale Road Scottsdale, AZ 85257",AZ,-111.9264432,3.5,33.4726716,TRUE,"[u'Food', u'Ice Cream & Frozen Yogurt', u'Fast Food', u'Restaurants']"
Phoenix,13,Rosati's Pizza,[],business,qP_IDUD0G_iTZitOypzrzA,"2320 E Baseline Rd Phoenix, AZ 85042",AZ,-112.0323812,3,33.3778548,TRUE,"[u'Pizza', u'Restaurants']"
Phoenix,3,Charley's Grilled Subs,[],business,MQjBx1iVmIz6uI9T0DIkKw,"3013 W Agua Fria Fwy Ste 3 Phoenix, AZ 85027",AZ,-112.12371,3.5,33.666682,TRUE,"[u'Delis', u'Restaurants']"
Scottsdale,3,Lucy's Cafe & Grill,[],business,xPSLlgEewbXbjsy-LdsBsg,"7678 E Greenway Rd Ste 104 Scottsdale, AZ 85260",AZ,-111.915163,3.5,33.6260369,TRUE,"[u'Breakfast & Brunch', u'Delis', u'Sandwiches', u'Restaurants']"
Buckeye,3,El Pollo Loco,[],business,1PM40DbmTVCNgENzZfs1kg,"758 S Watson Rd Buckeye, AZ 85326",AZ,-112.5564814,4.5,33.4393455,TRUE,"[u'Mexican', u'Restaurants']"
Scottsdale,3,The Apple Cafe,[],business,U7sejo2TGadsrAIdxCRKeQ,"15040 N Northsight Blvd Scottsdale, AZ 85260",AZ,-111.8970223,3.5,33.6223725,FALSE,"[u'American (Traditional)', u'Sandwiches', u'Restaurants']"
Glendale,21,Pete's Fish & Chips,[],business,Yw86Jnab9ixke9xJ5pLhMQ,"5516 W Glendale Ave Glendale, AZ 85301",AZ,-112.1783249,2.5,33.5385792,TRUE,"[u'Seafood', u'Restaurants']"
Phoenix,193,Pizza A Metro,[],business,XkNQVTkCEzBrq7OlRHI11Q,"2336 W Thomas Rd Phoenix, AZ 85015",AZ,-112.1091081,4.5,33.4806776,TRUE,"[u'Restaurants', u'Pizza', u'Italian']"
Phoenix,26,Gil's Taste of Taos,[],business,NBwPgX7L2D-EZedgo3A-pw,"1601 E Bell Rd Ste A-8 Phoenix, AZ 85022",AZ,-112.047055,3.5,33.639747,TRUE,"[u'Diners', u'Mexican', u'Tex-Mex', u'Restaurants']"
Tempe,32,Jimmy John's,[],business,0NhcabzEyeCIMsNCPOX-MQ,"5128 Rural Rd Tempe, AZ 85282",AZ,-111.9286939,3,33.3785219,TRUE,"[u'Food', u'Food Delivery Services', u'Delis', u'Sandwiches', u'Restaurants']"
Phoenix,3,McDonald's,[],business,nQOfSLVkN6GnBCYKSc0vYg,"926 E Indian School Rd Phoenix, AZ 85012",AZ,-112.061875,2,33.495238,TRUE,"[u'Burgers', u'Fast Food', u'Restaurants']"
Chandler,5,McDonald's,[],business,cwyAZ52cV60e-NiF-jWCMQ,"3185 S Alma School Rd Chandler, AZ 85248",AZ,-111.8579232,1.5,33.2596494,TRUE,"[u'Fast Food', u'Restaurants']"
Mesa,16,Native New Yorker,[],business,zBGfa6Vx4K59v8OR81gzJg,"1559 S Gilbert Rd Mesa, AZ 85204",AZ,-111.788226,3,33.3876436,TRUE,"[u'American (Traditional)', u'Restaurants']"
Anthem,3,Persimmon Bar & Grille,[],business,HrTXmtWrsgmWnoqV5nbTGg,"Anthem Country Club 2708 W Anthem Club Dr Anthem, AZ 85086",AZ,-112.110251,4,33.865303,TRUE,"[u'American (New)', u'Restaurants']"
Chandler,30,Pita Heaven,[],business,7-vGQpfj0RcOD-Cy7CXDiA,"2580 W Chandler Blvd Ste 3 Chandler, AZ 85224",AZ,-111.88557,3.5,33.306806,TRUE,"[u'Greek', u'Mediterranean', u'Middle Eastern', u'Restaurants']"
Mesa,61,Taiwan Food Express,[],business,Cota2ttLUjoKhFU6ukYqSA,"66 S Dobson Rd Ste 148 Mesa, AZ 85202",AZ,-111.875779,3.5,33.413158,TRUE,"[u'Taiwanese', u'Restaurants']"
Glendale,48,Which Wich Superior Sandwiches,[],business,yA9gOueRPoQ4-Y8Xdu8k3Q,"9404 W Westgate Blvd Glendale, AZ 85305",AZ,-112.2596741,4,33.53567138,TRUE,"[u'Sandwiches', u'Restaurants']"
Phoenix,5,Left Seat Restaurant & Lounge,[],business,QAqD40DAbYXBcw1oX3AJyw,"2633 E Air Ln Gate 108 Phoenix, AZ 85034",AZ,-112.026154,3.5,33.439648,FALSE,"[u'Caterers', u'American (Traditional)', u'Event Planning & Services', u'Restaurants']"
Goodyear,3,El Paso Grill & Bar-B-Que,[],business,vEMAPsmkqav9TbZUw34xdA,"1480 N Litchfield Rd Goodyear, AZ 85338",AZ,-112.3584488,1.5,33.4634252,FALSE,"[u'Barbeque', u'Restaurants']"
Scottsdale,11,Culver's,[],business,uZdGSJdWbQpLDsuV9mP79g,"8668 E Shea Blvd Scottsdale, AZ 85260",AZ,-111.8936767,3,33.58270912,TRUE,"[u'Food', u'Burgers', u'Fast Food', u'Ice Cream & Frozen Yogurt', u'Restaurants']"
Phoenix,15,Perc Up Coffee Cafe,[],business,Lfm0zMACRFYpUZR_xGMYAQ,"2325 N 7th St Phoenix, AZ 85006",AZ,-112.0649666,4,33.4741375,FALSE,"[u'Food', u'Coffee & Tea', u'Cafes', u'Restaurants']"
Phoenix,20,Steamers Genuine Seafood,[],business,OypZxwm-jS9QfUwgBmzeyw,"2576 E Camelback Rd Phoenix, AZ 85016",AZ,-112.0255251,3,33.5097281,FALSE,"[u'Seafood', u'Restaurants']"
Avondale,18,Starlight Cuisine,[],business,kIQ646tVxDv0Tyv2Tuz_kA,"10575 W Indian School Rd Ste 107 Avondale, AZ 85392",AZ,-112.286067,4.5,33.492985,FALSE,"[u'Caribbean', u'Restaurants']"
Sun City,4,Coco's Family Restaurant,[],business,IYVGbbABepLZ8j1bvrycLQ,"9801 W Bell Road Sun City, AZ 85351",AZ,-112.2704632,2.5,33.6378021,TRUE,"[u'Bakeries', u'Food', u'American (Traditional)', u'Restaurants']"
Scottsdale,19,Grapes,[],business,u8roVM7HO9Oiah2dNBHXrA,"7337 E Shea Blvd Ste 105 Scottsdale, AZ 85260",AZ,-111.92342,3.5,33.581506,FALSE,"[u'Wine Bars', u'Bars', u'Restaurants', u'Nightlife', u'Italian']"
Phoenix,153,O.H.S.O. Eatery + nanoBrewery,[],business,wNsmt1hF1uv3YvbwXZMAoQ,"4900 E Indian School Rd Phoenix, AZ 85018",AZ,-111.975898,4,33.495018,TRUE,"[u'Food', u'Breweries', u'American (New)', u'Restaurants']"
Scottsdale,61,Razz's Restaurant & Catering,[],business,7lp13T_FUmX1XjU2wen_qw,"10315 N Scottsdale Rd Scottsdale, AZ 85253",AZ,-111.9258314,4,33.5802421,TRUE,"[u'American (New)', u'French', u'Restaurants']"
Scottsdale,14,Teakwood's Tavern & Grill,[],business,PQr-HtmAbVoHYOJcESS0AQ,"8880 E Via Linda Ste 106 Scottsdale, AZ 85258",AZ,-111.889631,3,33.569524,FALSE,"[u'American (Traditional)', u'Restaurants']"
Chandler,36,Buffalo Wild Wings,[],business,TsD1cUoAas0Lv0UtT9-sdQ,"3163 W Chandler Blvd Suite V120 Chandler, AZ 85226",AZ,-111.8988633,3,33.2994442,TRUE,"[u'American (Traditional)', u'Restaurants']"
Glendale,30,Vito's Pizza,[],business,DfJRq4pqowfdTB4iTAENjQ,"4318 W Northern Ave Glendale, AZ 85301",AZ,-112.1525685,4,33.5532675,TRUE,"[u'Pizza', u'Restaurants']"
Mesa,3,Hong Kong Gourmet,[],business,YSZ-h3ZOp9WjESOGgBT-hQ,"1744 W Main St Mesa, AZ 85201",AZ,-111.869177,4.5,33.4153049,FALSE,[u'Restaurants']
Phoenix,269,NOCA,[],business,DcrM4hwDcU2G6vuh2cnaYQ,"3118 E Camelback Rd Phoenix, AZ 85016",AZ,-112.0152845,4,33.5100097,TRUE,"[u'American (New)', u'Restaurants']"
Phoenix,8,Tortas El Güero,[],business,he_b4txorHTrKjH5DnnmdQ,"4121 E Thomas Rd Phoenix, AZ 85018",AZ,-111.9923032,4,33.4801515,FALSE,"[u'Mexican', u'Restaurants']"
Chandler,85,C-Fu Gourmet Restaurant,[],business,z4KFTJQsAdxqMZA7Fx0A9A,"2051 W Warner Rd Ste 13 Chandler, AZ 85224",AZ,-111.877429,3,33.3350458,TRUE,"[u'Seafood', u'Dim Sum', u'Chinese', u'Restaurants']"
Phoenix,140,Padre's Modern Mexican Cuisine,[],business,6nseTZb6WrGWcithRThfag,"1044 E Camelback Rd Phoenix, AZ 85014",AZ,-112.0588374,4,33.5093453,FALSE,"[u'Bars', u'Latin American', u'Mexican', u'Nightlife', u'Restaurants']"
Maricopa,5,McDonald's,[],business,57RwRDqYrGrYJc2wwTgHLw,"20700 N John Wayne Pkwy Maricopa, AZ 85139",AZ,-112.0473418,2,33.066913,TRUE,"[u'Fast Food', u'Restaurants']"
Peoria,7,Filiberto's,[],business,PONDGYxI1dswoYjrzeljbA,"13972 N 83rd Ave Peoria, AZ 85381",AZ,-112.238173,3.5,33.611537,TRUE,"[u'Mexican', u'Restaurants']"
Tempe,18,The Bamboo Club,[],business,my9uotsFBYJl9L66iS5EuQ,"699 S Mill Ave Tempe, AZ 85281",AZ,-111.9392896,3,33.4235796,FALSE,"[u'Asian Fusion', u'Restaurants']"
Surprise,9,Red Embers Bar & Grill,[],business,XRdwAqzuG_SwVFFlOzLmEQ,"Uptown Alley 13525 N Litchfield Rd Surprise, AZ 85379",AZ,-112.355665,3,33.6075896,TRUE,"[u'Bars', u'American (New)', u'Nightlife', u'Restaurants']"
Peoria,63,BJ's Restaurant & Brewhouse,[],business,6v0vQm3wXzaFoEywvpbnqg,"9748 W. Northern Ave. Peoria, AZ 85345",AZ,-112.2692793,3,33.5517332,TRUE,"[u'Food', u'Pizza', u'American (New)', u'Breweries', u'Restaurants']"
Phoenix,103,North Fattoria Italiana,[],business,CSoURupWEyuyzkjMOExKPg,"North Arcadia 4925 N 40th St Phoenix, AZ 85018",AZ,-111.9953195,4,33.5087368,TRUE,"[u'Restaurants', u'Italian']"
Phoenix,8,Potbelly Sandwich Shop,[],business,i--afvRsP1TSJyQMZKgJiw,"534 W McDowell Rd Phoenix, AZ 85003",AZ,-112.0814642,3.5,33.4660407,TRUE,"[u'Sandwiches', u'Restaurants']"
Scottsdale,7,Summit Diner,[],business,wG9Aov3y0qRIicugJNAc0w,"32531 N Scottsdale Rd Ste 101 Scottsdale, AZ 85266",AZ,-111.9239194,2.5,33.78065777,TRUE,"[u'Breakfast & Brunch', u'American (New)', u'Restaurants']"
Phoenix,6,Ralph's Snack Bar,[],business,W8Gjzs5mxSU9aA77l-V9fA,"4501 W Van Buren St Phoenix, AZ 85043",AZ,-112.1560021,4,33.4513376,TRUE,"[u'Food Stands', u'Restaurants']"
Peoria,31,Heidi's Brooklyn Deli,[],business,NtmLlKfCFfM0K5j6WWKxQA,"8360 W Thunderbird Rd Peoria, AZ 85381",AZ,-112.2387233,3.5,33.610028,TRUE,"[u'Delis', u'Sandwiches', u'Restaurants']"
Phoenix,5,Jb's,[],business,_1lXRQ2Qda8HDpUQUqTYwA,"1818 W Montebello Ave Phoenix, AZ 85015",AZ,-112.0977034,2.5,33.5196796,FALSE,"[u'Breakfast & Brunch', u'Restaurants']"
Phoenix,5,Filiberto's,[],business,tIuw93p4MEsL2iFv7-0WDg,"2302 W Camelback Phoenix, AZ 85015",AZ,-112.1089713,2,33.5096533,TRUE,"[u'Mexican', u'Restaurants']"
Tempe,44,Curry Corner,[],business,x3ws2L-TlI-JPcEQjjEC9g,"1212 E Apache Blvd Tempe, AZ 85281",AZ,-111.919995,4.5,33.415194,TRUE,"[u'Indian', u'Pakistani', u'Restaurants']"
Phoenix,6,Burger King,[],business,r67TiLEb5K1nnacFCEQ0jQ,"13635 N 35th Ave Phoenix, AZ 85029",AZ,-112.1335065,1.5,33.609824,TRUE,"[u'Burgers', u'Restaurants']"
Scottsdale,53,Goldmans Deli,[],business,TpQMR-JFE5V0UPzTjjuwFQ,"6929 N Hayden Rd Ste C2 Scottsdale, AZ 85250",AZ,-111.908547,4,33.5376434,TRUE,"[u'Delis', u'Sandwiches', u'Restaurants']"
Chandler,5,McDonald's,[],business,z6V7Mb0fjHo_JT3l7dCKsA,"1900 W Warner Rd Chandler, AZ 85224",AZ,-111.875061,2.5,33.335621,TRUE,"[u'Burgers', u'Fast Food', u'Restaurants']"
Wickenburg,12,Nana's Sandwich Saloon,[],business,udVKZfBZ3IyZf_mlTy0law,"48 N Tegner St Wickenburg, AZ 85390",AZ,-112.730548,4,33.969076,TRUE,"[u'Nightlife', u'Sandwiches', u'Restaurants']"
Casa Grande,21,Tommy's Bistro,[],business,VQfqbRNkykoEo7Rj-D9M_Q,"913 E 8th St Casa Grande, AZ 85222",AZ,-111.742524,3.5,32.880056,TRUE,"[u'Restaurants', u'Italian']"
Scottsdale,57,Pars Persian Cuisine,[],business,50hOEQ2OutvIxrMjNml5bA,"11144 N Frank Lloyd Wright Blvd Scottsdale, AZ 85259",AZ,-111.8363223,4,33.58712209,TRUE,"[u'Persian/Iranian', u'Restaurants']"
Scottsdale,149,Los Sombreros Mexican Food & Cocktails,[],business,iDYzGVIF1TDWdjHNgNjCVw,"2534 N Scottsdale Rd Scottsdale, AZ 85257",AZ,-111.9265203,3.5,33.4765807,TRUE,"[u'Mexican', u'Restaurants']"
Chandler,6,Thai Dressing,[],business,9QvuimC30Cj5LI1kK_mn9g,"2950 S Alma School Rd Chandler, AZ 85248",AZ,-111.8588587,3.5,33.2624833,TRUE,"[u'Thai', u'Restaurants']"
Phoenix,11,Golden Coin,[],business,sMD2HPNh7m0hgCxHDzGTzQ,"3224 E Thomas Rd Phoenix, AZ 85018",AZ,-112.0115928,2,33.4805041,TRUE,"[u'Buffets', u'Chinese', u'Restaurants']"
Tempe,44,Oregano's Pizza Bistro,[],business,yPJFfglhMHAKciUpjTmgBg,"1475 W Elliot Rd Tempe, AZ 85284",AZ,-111.9636082,4,33.3490097,TRUE,"[u'Italian', u'Pizza', u'Restaurants']"
Tempe,8,Einstein Bros Bagels,[],business,FPD5xXo_QPmJVo5XJKPryA,"9900 S Rural Rd Tempe, AZ 85284",AZ,-111.929858,3.5,33.321492,TRUE,"[u'Food', u'Bagels', u'Delis', u'Restaurants']"
Avondale,31,Ono Hawaiian BBQ,[],business,HBzv6vjTkeM-s_UIFCg2gg,"13070 W Rancho Santa Fe Blvd Ste C - 7 Avondale, AZ 85323",AZ,-112.345359,3.5,33.430535,TRUE,"[u'Hawaiian', u'Restaurants']"
Chandler,8,Souper Salad,[],business,m_fi31gTJ1aASUZbS3QioQ,"2780 W Chandler Blvd Chandler, AZ 85224",AZ,-111.891192,3,33.306349,FALSE,"[u'Buffets', u'Restaurants']"
Tempe,10,Moe's Southwest Grill,[],business,04SKYBXRAqeYIuuVDzwKNg,"325 W Elliot Rd Tempe, AZ 85284",AZ,-111.9449183,3,33.3490842,FALSE,"[u'Tex-Mex', u'Restaurants']"
Mesa,25,Jimmy and Joe's Pizzeria,[],business,XKFGZwvsk3GVzd1CZdWpIg,"1960 W Baseline Rd Mesa, AZ 85202",AZ,-111.8773052,4,33.3787123,TRUE,"[u'Pizza', u'Restaurants']"
Tempe,196,Teharu Sushi,[],business,EC9WB-iVjd28B6R6KIZ8TA,"9845 S Priest Dr Tempe, AZ 85284",AZ,-111.9626175,3.5,33.3216034,TRUE,"[u'Sushi Bars', u'Restaurants']"
Chandler,3,Subway,[],business,m7oHviLGHLSNKygL_W5BYg,"611 N Arizona Ave Chandler, AZ 85225",AZ,-111.84107,3,33.313923,TRUE,"[u'Sandwiches', u'Restaurants']"
El Mirage,5,Lupitas,[],business,yaKR6C1ER0ox79j8r5ZaOQ,"13915 N Dysart Rd El Mirage, AZ 85335",AZ,-112.3412092,3.5,33.6105701,TRUE,"[u'Mexican', u'Restaurants']"
Phoenix,3,Royal Buffet,[],business,z5r8zD7vGPCMpKljERvKqg,"4921 E Ray Rd Phoenix, AZ 85044",AZ,-111.9780069,3,33.3197437,FALSE,"[u'Buffets', u'Chinese', u'Restaurants']"
Tempe,28,Poliberto's Taco Shop,[],business,O4GznwWobGqx01DUlijgZA,"1219 W Baseline Rd Tempe, AZ 85282",AZ,-111.9570367,4,33.3780766,TRUE,"[u'Mexican', u'Restaurants']"
Phoenix,6,Soma Express,[],business,tzGPZyGuFT3dCT1Wpn9JQA,"3961 E Camelback Rd Phoenix, AZ 85018",AZ,-111.9952353,4,33.5097283,FALSE,"[u'Food', u'Vegetarian', u'Juice Bars & Smoothies', u'Sandwiches', u'Restaurants']"
Glendale,3,Soleil,[],business,QZ0IytLrt6z5DCqiP_LJbA,"9495 W. Coyotes Blvd. Glendale, AZ 85305",AZ,-112.2634935,3,33.5324161,TRUE,"[u'Tex-Mex', u'Restaurants']"
Apache Junction,3,Los Favoritos,[],business,Wz9mfgk1XWS2aszNiTvO1w,"1879 W Apache Trl Apache Junction, AZ 85220",AZ,-111.5664275,3.5,33.4150703,TRUE,"[u'Mexican', u'Tex-Mex', u'Restaurants']"
Mesa,32,Los Picos Parrilla Restaurant,[],business,E6HzAdx2vyZVyuNoa4-Xaw,"1542 W University Dr Mesa, AZ 85201",AZ,-111.8644947,4,33.4224084,TRUE,"[u'Mexican', u'Restaurants']"
Peoria,10,Chipotle - Happy Valley,[],business,tiWLO7EGmOGO7XIE_lESiA,"9940 W Happy Valley Pkwy Peoria, AZ 85383",AZ,-112.2731482,4.5,33.7114452,TRUE,"[u'Mexican', u'Restaurants']"
Chandler,30,Gingerroot,[],business,AbS4rMXc19XJJcXVZDhy7w,"1076 W Chandler Blvd Chandler, AZ 85224",AZ,-111.8609857,3.5,33.306107,FALSE,"[u'Filipino', u'Restaurants']"
Phoenix,3,McDonald's,[],business,Snu39WyiChz0NwFWRMyUvQ,"2447 E Bell Road Phoenix, AZ 85032",AZ,-112.029015,1.5,33.639971,TRUE,"[u'Fast Food', u'Restaurants']"
Scottsdale,13,Brennan's,[],business,ZXlO9S1MG2I-L5uLSF-nPA,"13610 N Scottsdale Rd Scottsdale, AZ 85260",AZ,-111.9271921,3,33.6097989,TRUE,"[u'Mexican', u'Restaurants']"
Tempe,179,Lalibela Ethiopian Cafe,[],business,#NAME?,"849 W University Dr Tempe, AZ 85281",AZ,-111.9506847,4,33.421909,TRUE,"[u'Ethiopian', u'Restaurants']"
Chandler,9,Pirate's Fish & Chips,[],business,7EFNxJUVQtF3jS1P6qsweg,"200 S Arizona Ave Chandler, AZ 85225",AZ,-111.8419,3,33.3004279,TRUE,"[u'Seafood', u'Restaurants']"
Phoenix,38,Milagro Grill,[],business,Q2FaJ3zB6ZuGgvqUqhdc_w,"4280 E Indian School Rd Ste 101 Phoenix, AZ 85018",AZ,-111.9891177,4,33.495074,TRUE,"[u'Latin American', u'Restaurants']"
Scottsdale,37,Asian Island,[],business,#NAME?,"14870 N Northsight Blvd Ste 103 Scottsdale, AZ 85260",AZ,-111.8983054,4,33.621463,TRUE,"[u'Sushi Bars', u'Hawaiian', u'Chinese', u'Restaurants']"
Scottsdale,3,Redfish,[],business,LrgOTuILGxG1of5iYBgktA,"7401 E Frnk Llyd Wrght Blvd Scottsdale, AZ 85260",AZ,-111.920975,4,33.63646,FALSE,"[u'Seafood', u'Restaurants']"
Scottsdale,6,Hana's Cafe,[],business,ceLahgipObftAOThax6ZwQ,"10855 N Frank Lloyd Wright Blvd Scottsdale, AZ 85259",AZ,-111.8342047,3.5,33.584274,FALSE,"[u'Greek', u'Cafes', u'Restaurants']"
Phoenix,124,Stacy's Smokehouse,[],business,asebFFgabg_lfoNpGJHZlQ,"1650 E Indian School Rd Phoenix, AZ 85016",AZ,-112.0455993,3.5,33.4948853,TRUE,"[u'Barbeque', u'Restaurants']"
Phoenix,3,Happy Food,[],business,Cdnp0HbJ4wVlzffuueG45w,"6701 W Thomas Rd Phoenix, AZ 85033",AZ,-112.203776,4.5,33.47994,TRUE,"[u'Chinese', u'Restaurants']"
Mesa,3,On The Green Sports Grill,[],business,4YiayKmzqRao1UNb8Xh0Bw,"801 S Power Rd Mesa, AZ 85206",AZ,-111.68413,4.5,33.399883,TRUE,"[u'American (New)', u'Restaurants']"
Scottsdale,7,Baja Fresh Mexican Grill,[],business,kuQhOoT4viBi1hzyXQ10CA,"14858 N Frank Lloyd Wright B Scottsdale, AZ 85260",AZ,-111.875696,3.5,33.621158,TRUE,"[u'Mexican', u'Restaurants']"
Phoenix,3,Whataburger Restaurants,[],business,f59y-eSmCxYUueKTCA_6bQ,"450 W Indian School Road Phoenix, AZ 85013",AZ,-112.0799371,2.5,33.4950034,TRUE,[u'Restaurants']
Surprise,85,Saigon Kitchen,[],business,YnWb8fRudnNkXc-VjrmKGg,"14071 W Bell Rd Surprise, AZ 85374",AZ,-112.3634434,4,33.63820383,TRUE,"[u'Vietnamese', u'Asian Fusion', u'Restaurants']"
Scottsdale,4,Subway,[],business,TDvqljD6XbP6nWZBfy1OBg,"14144 N 100th St Suite 125 Scottsdale, AZ 85260",AZ,-111.8645011,3,33.6145764,TRUE,"[u'Fast Food', u'Sandwiches', u'Restaurants']"
Chandler,4,Babycakes Cafe,[],business,r6PWYVbDY4c-XqeXpu0u3w,"48 San Marcos Pl Chandler, AZ 85225",AZ,-111.8332,3,33.3181,TRUE,"[u'Sandwiches', u'Restaurants']"
Scottsdale,67,Au Petit Four,[],business,wftoNIA0Q8nX-Da47psBCA,"7217 E 4th Ave Scottsdale, AZ 85251",AZ,-111.9253728,3.5,33.4978182,TRUE,"[u'Bakeries', u'Food', u'Sandwiches', u'French', u'Restaurants']"
Phoenix,72,Wy-Knot Cafe,[],business,GbEOmf5k73r_UJWjchrHOg,"2325 N 7th St Phoenix, AZ 85006",AZ,-112.0649666,4,33.4741375,TRUE,"[u'Breakfast & Brunch', u'Cafes', u'Restaurants']"
Phoenix,4,Kyoto Bowl,[],business,QplY4p8HHJY0ncbgcpb8WQ,"2910 N 32nd Street Suite 160 Phoenix, AZ 85018",AZ,-112.0128995,1.5,33.4807241,TRUE,"[u'Japanese', u'Restaurants']"
Tempe,17,International House of Pancakes,[],business,SNpVV5viJ2aPylP6bkAx8Q,"225 E Apache Blvd Tempe, AZ 85281",AZ,-111.935878,3,33.414249,TRUE,"[u'American (Traditional)', u'Restaurants']"
Phoenix,39,Captain Bill's Subs,[],business,NFoVdVCLmJ4InK4g6GYgKQ,"10645 N 35th Ave Phoenix, AZ 85029",AZ,-112.1339119,4,33.5836899,TRUE,"[u'Sandwiches', u'Restaurants']"
Scottsdale,6,Methode Bistro,[],business,SIzUsf5x2RSkPwJS--A4Rw,"6204 N Scottsdale Rd Scottsdale, AZ 85253",AZ,-111.9258624,4.5,33.5278493,FALSE,"[u'Basque', u'Italian', u'Spanish', u'American (New)', u'Restaurants']"
Phoenix,4,Happy Food,[],business,a5ovPlhQkcA27FFu664xKA,"3 W Baseline Rd Phoenix, AZ 85041",AZ,-112.073407,3.5,33.3777494,TRUE,"[u'Chinese', u'Restaurants']"
Avondale,16,Pei Wei Asian Diner,[],business,zUGy_9UtKDfjotmWpCu_Sg,"1619 N Dysart Rd Avondale, AZ 85392",AZ,-112.340224,4,33.465665,TRUE,"[u'Asian Fusion', u'Restaurants']"
Phoenix,29,Paradise Bakery & Cafe,[],business,Y-PnvV-q4HYLIy19ubVmXQ,"2502 E Camelback Rd Phoenix, AZ 85016",AZ,-112.0272041,3,33.5102068,TRUE,"[u'Bakeries', u'Food', u'Sandwiches', u'Restaurants']"
Phoenix,67,My Big Fat Greek Restaurant,[],business,TQhP4vCMjvX527YMxPfuUA,"10625 N Tatum Blvd Phoenix, AZ 85028",AZ,-111.9770187,3,33.5834449,TRUE,"[u'Greek', u'Mediterranean', u'Restaurants']"
Chandler,9,Qdoba Mexican Grill,[],business,Vak7jP7fu6LUxQDZmSZE3g,"2855 W. Ray Road Suite 1 Chandler, AZ 85224",AZ,-111.8904425,3,33.3203241,TRUE,"[u'Mexican', u'Restaurants']"
Mesa,26,Chevys Fresh Mex,[],business,rMsTpVM2bJIoghACAtn_uA,"1335 S Alma School Rd Mesa, AZ 85210",AZ,-111.8570231,3.5,33.3897636,FALSE,"[u'Mexican', u'Restaurants']"
Phoenix,22,Jay's Gyro's,[],business,uyuiIvQ3aWZxc1-2i_dQtQ,"4750 E Broadway Road Phoenix, AZ 85040",AZ,-111.979265,3,33.407457,TRUE,"[u'Greek', u'Restaurants']"
Chandler,94,Yoli's Cafe,[],business,kfscAJnLVf6J2uEte7g-5A,"241 S Oregon St Chandler, AZ 85225",AZ,-111.842586,4,33.299873,TRUE,"[u'Burgers', u'Breakfast & Brunch', u'Restaurants']"
Fountain Hills,4,Little Caesars,[],business,YjURbuHKIAQrwQKE8jxszQ,"16605 E Palisades Blvd Ste 102 Fountain Hills, AZ 85268",AZ,-111.7204642,4,33.60849876,TRUE,"[u'Pizza', u'Restaurants']"
Phoenix,53,La Parrilla Suiza,[],business,WxpCYziMlEy8mrEa_VcB1w,"13001 N Tatum Blvd Phoenix, AZ 85032",AZ,-111.977799,3.5,33.6049318,TRUE,"[u'Mexican', u'Restaurants']"
Phoenix,58,The Original Garcia's,[],business,glalhJa7wFWPIoJLBvKGfQ,"2212 N 35th Ave Phoenix, AZ 85009",AZ,-112.1345686,4,33.4724491,TRUE,"[u'Mexican', u'Restaurants']"
Wickenburg,6,Qorris Restaurant,[],business,ZjpCTpG87cmd9agfpz-EaQ,"651 W Wickenburg Way Wickenburg, AZ 85390",AZ,-112.742297,4,33.965721,TRUE,"[u'Restaurants', u'Pizza', u'Italian']"
Phoenix,31,Jersey Mike's Subs,[],business,1_43FZHx3P5D7X-CpIR9WA,"2501 W Happy Valley Rd Phoenix, AZ 85027",AZ,-112.111808,4,33.7121,TRUE,"[u'Sandwiches', u'Restaurants']"
Phoenix,6,Sonic Drive-In,[],business,A-ZhvQa5A-XSqZB3HH6TVw,"1537 W Camelback Rd Phoenix, AZ 85015",AZ,-112.0925451,4,33.5092599,FALSE,"[u'American (Traditional)', u'Fast Food', u'Restaurants']"
Chandler,51,Zipps Sports Grill,[],business,7TMf1NuuAdvhG7IojZSKnw,"3950 W Ray Rd Chandler, AZ 85226",AZ,-111.9104666,3.5,33.3211423,TRUE,"[u'Bars', u'Restaurants', u'American (Traditional)', u'Sports Bars', u'Nightlife']"
Phoenix,4,McDonald's Restaurants,[],business,fhmKIPGVx9_O4P9zEgCHjQ,"719 E Thunderbird Road Phoenix, AZ 85022",AZ,-112.0649186,2,33.6074328,TRUE,[u'Restaurants']
Scottsdale,78,Frasher's Steak House & Lounge,[],business,fMcI0fOLmUwSvgVCmGA9Rg,"2122 N Scottsdale Rd Scottsdale, AZ 85257",AZ,-111.9263131,4,33.4716326,TRUE,"[u'Steakhouses', u'American (Traditional)', u'Restaurants']"
Phoenix,10,Sport Peppers Grill,[],business,cTyBfWfmgL3vgRetyfmtyA,"1606 E Bell Rd Ste 101 Phoenix, AZ 85022",AZ,-112.0475,2.5,33.641478,TRUE,"[u'Bars', u'Restaurants', u'American (Traditional)', u'Sports Bars', u'Nightlife']"
Tempe,4,Extreme Pita,[],business,zTh0ArlhidvA2C8RNE5wbg,"1320 W Elliot Rd Tempe, AZ 85284",AZ,-111.9593221,4,33.3491937,FALSE,"[u'Greek', u'Mediterranean', u'Restaurants']"
Chandler,3,Tropical Smoothie Cafe,[],business,oHoY4vX_wqnXHGLDhviveA,"4015 S Arizona Ave Ste 11 Chandler, AZ 85248",AZ,-111.8408778,4,33.2467202,FALSE,"[u'Food', u'Juice Bars & Smoothies', u'Restaurants', u'Cafes']"
Scottsdale,128,Fresh Mint,[],business,znmvCpcwxYk_kYCqtUFt5Q,"13802 N Scottsdale Rd Ste 161 Scottsdale, AZ 85254",AZ,-111.9271523,4,33.6119344,TRUE,"[u'Kosher', u'Vegetarian', u'Vegan', u'Restaurants']"
Phoenix,16,Great Wok,[],business,6FGwEHnoD-mM-PiXrhxOlw,"3646 E Ray Rd #12 Phoenix, AZ 85044",AZ,-112.004102,4,33.316873,TRUE,"[u'Chinese', u'Restaurants']"
Chandler,57,Guedo's Cantina Grille,[],business,T_Kcz_bkhE9T6YejqFqPxQ,"71 E Chandler Blvd Chandler, AZ 85225",AZ,-111.8404958,3.5,33.3060217,TRUE,"[u'Mexican', u'Restaurants']"
Phoenix,4,Round Table Pizza,[],business,_ISHH8x8Qe6IoVTQWegbpQ,"Phoenix Sky Harbor Airport Terminal 2 Phoenix, AZ 85034",AZ,-112.0136128,2,33.4361911,TRUE,"[u'Pizza', u'Restaurants']"
Avondale,36,TJ's Homestyle Restaurant,[],business,BNTw6sX6fDWe-pmyY1FeDA,"310 N Dysart Rd Avondale, AZ 85323",AZ,-112.3410882,4,33.4384287,TRUE,"[u'Breakfast & Brunch', u'American (Traditional)', u'Restaurants']"
Mesa,4,Coco's Family Restaurant,[],business,1DDTdvU06tng7o0vU7-rig,"1862 W Baseline Road Mesa, AZ 85202",AZ,-111.875732,2.5,33.378957,TRUE,"[u'Bakeries', u'Food', u'American (Traditional)', u'Restaurants']"
Phoenix,132,Sakana Sushi & Grill,[],business,0vzZ_Bcb02rJljeMU9XkBw,"5061 E Elliot Rd Phoenix, AZ 85044",AZ,-111.9766015,4,33.3488957,TRUE,"[u'Seafood', u'Sushi Bars', u'Japanese', u'Restaurants']"
Phoenix,13,Tandoori Times 3 Indian Bistro,[],business,W6624iddi14DsGokORyzcA,"12027 N 28th Dr Phoenix, AZ 85029",AZ,-112.1199995,4,33.5955528,TRUE,"[u'Indian', u'Restaurants']"
Goodyear,13,Costa Vida,[],business,3GpihkrWZOmu1a5k1EfA6g,"13233 W McDowell Rd Goodyear, AZ 85395",AZ,-112.343889,3.5,33.463798,TRUE,"[u'Mexican', u'Restaurants']"
Scottsdale,194,Wildfish Seafood Grille,[],business,8t80-omyflkywRfu9LPh6g,"7135 E Camelback  Rd Ste 130 Scottsdale, AZ 85250",AZ,-111.928035,4,33.50200362,TRUE,"[u'Seafood', u'American (Traditional)', u'Restaurants']"
Scottsdale,3,Olive's Pizzeria & Restaurant,[],business,JjNzg4kWtynK-brdgKh-9A,"9619 N Hayden Rd Ste 103 Scottsdale, AZ 85258",AZ,-111.9055104,3.5,33.5737667,FALSE,"[u'Restaurants', u'Pizza', u'Italian']"
Scottsdale,59,Drift Lounge,[],business,o4DsvwwD2kIbF-EM4r9G8A,"4341 N 75th St Scottsdale, AZ 85251",AZ,-111.9199715,3.5,33.4999005,FALSE,"[u'Bars', u'Hawaiian', u'Nightlife', u'Lounges', u'American (New)', u'Restaurants']"
Phoenix,39,Culver's,[],business,U605aUo9MJn5vgLfP3yYKg,"10225 N 28th Dr Phoenix, AZ 85051",AZ,-112.1215834,4,33.580542,TRUE,"[u'Food', u'Burgers', u'Ice Cream & Frozen Yogurt', u'Restaurants']"
Phoenix,4,Chipotle,[],business,XFf_SY9mZe0XGYjPetzpbQ,"2415 E Baseline Rd Phoenix, AZ 85042",AZ,-112.0292056,3.5,33.3777009,TRUE,"[u'Tex-Mex', u'Restaurants']"
Phoenix,9,Asadero Toro,[],business,gc5gNHC8VJQ8px7bJJRiQA,"1715 W McDowell Rd Phoenix, AZ 85007",AZ,-112.096342,4.5,33.465454,TRUE,"[u'Mexican', u'Restaurants']"
Surprise,8,US Pizza,[],business,XXdXgsLzigS4afx8lv9MRw,"15459 W Bell Rd Surprise, AZ 85374",AZ,-112.3933793,3.5,33.6387206,TRUE,"[u'Pizza', u'Restaurants']"
Tempe,6,Vaqueros Carne Asada,[],business,BBt7Mx9CbhTxJo88QGuErw,"2602 W Southern Ave Tempe, AZ 85282",AZ,-111.97627,3,33.393199,TRUE,"[u'Mexican', u'Restaurants']"
Scottsdale,163,Oregano's Pizza Bistro,[],business,LMG0zsAkUSscIvmV9vvm3A,"7215 E Shea Blvd Scottsdale, AZ 85260",AZ,-111.925123,4,33.581877,TRUE,"[u'Pizza', u'Restaurants']"
Tempe,5,Salad Creations,[],business,TjQ5XxrQUJOXJoohYDU8jg,"2000 E Rio Salado Pkwy Tempe, AZ 85281",AZ,-111.9043028,3.5,33.4329724,FALSE,"[u'Sandwiches', u'Restaurants']"
Tempe,4,Venue 104 - A Performance Cafe,[],business,OmfLT4ZxFGiNygGmKcgE6g,"940 E University Dr Ste 102 Tempe, AZ 85281",AZ,-111.9248634,4,33.4220819,TRUE,"[u'Arts & Entertainment', u'Cafes', u'Nightlife', u'Music Venues', u'Restaurants']"
Mesa,3,Peter Piper Pizza,[],business,lPmKXXcXVYkug5q9hhX2Jw,"1906 W 8th St Mesa, AZ 85201",AZ,-111.8716076,2.5,33.4294592,TRUE,"[u'Pizza', u'Restaurants']"
Phoenix,398,Barrio Café,[],business,1NZLxU5WvB5roPFzneAlLw,"2814 N 16th St Phoenix, AZ 85006",AZ,-112.0478085,4,33.4787943,TRUE,"[u'Mexican', u'Restaurants']"
Phoenix,67,The Strand,[],business,vfLog2bLJGl6hAFtGtr0GQ,"2 E Jefferson St Ste 113 Phoenix, AZ 85004",AZ,-112.073781,4,33.4471735,TRUE,"[u'Restaurants', u'Italian']"
Scottsdale,7,Crush'd Wine Bar and Market,[],business,FrPm9l_CmSwBe8TCEiQnUg,"7101 E Thunderbird Rd Ste 101A Scottsdale, AZ 85254",AZ,-111.927561,4.5,33.610963,FALSE,"[u'Wine Bars', u'Bars', u'Mediterranean', u'Nightlife', u'Restaurants']"
Mesa,202,unPhogettable,[],business,mhQCxOiqp03qnhGRTtPduw,"66 S Dobson Rd Mesa, AZ 85202",AZ,-111.875779,4,33.413158,TRUE,"[u'Vietnamese', u'Restaurants']"
Phoenix,167,AMC Esplanade 14,[],business,EmlgWjs1ZzZEpDjZCSPLmw,"2515 E Camelback Rd Phoenix, AZ 85016",AZ,-112.027582,4,33.508118,TRUE,"[u'Arts & Entertainment', u'American (Traditional)', u'Food', u'Beer, Wine & Spirits', u'Cinema', u'Restaurants']"
Tempe,9,Popeyes Chicken & Biscuits,[],business,D0tHnskAgaRjCBdoXVev_g,"457 W Broadway Rd Tempe, AZ 85282",AZ,-111.9455692,4,33.407368,TRUE,"[u'Cajun/Creole', u'Fast Food', u'Southern', u'Restaurants']"
Phoenix,3,Taco Mex,[],business,cne0A4qlWtahuzUSdzdalQ,"3525 W Glendale Avenue Phoenix, AZ 85051",AZ,-112.1358114,3.5,33.538256,TRUE,"[u'Mexican', u'Restaurants']"
Tempe,4,Bio Bistro,[],business,6bYrqzWQ2OOYb0I2GofsHQ,"Biodesign Institute, Arizona State University 727 E Tyler St Tempe, AZ 85281",AZ,-111.9286251,3,33.42032012,TRUE,"[u'Food', u'Coffee & Tea', u'Cafes', u'Restaurants']"
Tolleson,3,Adam's Pizza and Wings,[],business,rTrZcAyxhIws62yA_f4huA,"9550 W Van Buren St Tolleson, AZ 85353",AZ,-112.2658301,3,33.4503105,TRUE,"[u'Pizza', u'Restaurants']"
Chandler,72,Thai Cafe,[],business,ApUCpJ9aa6yVgsde16gYrg,"3450 W Chandler Blvd Ste 9 Chandler, AZ 85226",AZ,-111.902866,3.5,33.3056789,TRUE,"[u'Thai', u'Restaurants']"
Phoenix,55,Half Moon Sports Grill,[],business,5tey93wPQOb7z6jOLJZ30w,"288 E Greenway Pkwy Ste 103 Phoenix, AZ 85022",AZ,-112.071339,3.5,33.637072,TRUE,"[u'Bars', u'Restaurants', u'Sports Bars', u'Nightlife']"
Mesa,4,Denny's Restaurant,[],business,8KXIh45r0PO4C_eJffmNNA,"1210 E Main St Mesa, AZ 85203",AZ,-111.8049495,2,33.4153416,TRUE,[u'Restaurants']
Wickenburg,4,Mecca Bar & Grill,[],business,FpDSA0hl2TTWt_DEpYKBgg,"162 E Wickenburg Way Wickenburg, AZ 85390",AZ,-112.7296722,3,33.96922987,TRUE,"[u'American (New)', u'Restaurants']"
Phoenix,197,Pita Jungle,[],business,w19cemjVR8u02PgjFpJ7Mw,"4340 E. Indian School Rd. Phoenix, AZ 85018",AZ,-111.9884173,4,33.4952769,TRUE,"[u'Vegetarian', u'American (New)', u'Mediterranean', u'Restaurants']"
Scottsdale,31,Harvest Restaurant,[],business,PgcuQvFl76bx42xIFyhzVg,"7615 E Pinnacle Peak Rd Ste B-1 Scottsdale, AZ 85255",AZ,-111.915851,3.5,33.697603,FALSE,"[u'American (Traditional)', u'Restaurants']"
Phoenix,6,Ray's Pizza II,[],business,zAyk-fwDWf69AaTwNT2Ksg,"515 E Carefree Hwy Phoenix, AZ 85085",AZ,-112.066857,2.5,33.798477,TRUE,"[u'Pizza', u'Restaurants']"
Mesa,51,Charleston's,[],business,Rus-ewyqLj2D1RlqK-je4w,"1623 S. Stapley Dr. Mesa, AZ 85204",AZ,-111.8052763,4,33.3844325,TRUE,"[u'American (Traditional)', u'Restaurants']"
Cave Creek,4,Samurai Sam's Teriyaki Grill,[],business,NZ7IwFnVz2t3nygNqTkCyg,"4815 E Carefree Hwy Cave Creek, AZ 85331",AZ,-111.976648,5,33.797531,TRUE,"[u'Japanese', u'Restaurants']"
Glendale,5,Lone Star Steakhouse & Saloon,[],business,Rx9WPIaYCBquFBC563RjYg,"5664 W Bell Road Glendale, AZ 85308",AZ,-112.1816906,2.5,33.6390959,FALSE,[u'Restaurants']
Phoenix,316,The Vig,[],business,FqzgT9Y-Yu7jiWdHnGW-kQ,"4041 N 40th St Phoenix, AZ 85018",AZ,-111.9953287,3.5,33.494459,TRUE,"[u'Bars', u'American (Traditional)', u'Pubs', u'Nightlife', u'Lounges', u'Restaurants']"
Phoenix,11,Manhattan Pizzeria and Subshop,[],business,#NAME?,"5224 N 7th Street Phoenix, AZ 85014",AZ,-112.0651937,3,33.513796,TRUE,"[u'Pizza', u'Restaurants']"
Phoenix,4,Denny's Restaurant,[],business,JSX7i-cfoixVtnCx4BNb1g,"2120 E Cactus Rd Phoenix, AZ 85022",AZ,-112.0368923,3.5,33.5969746,TRUE,[u'Restaurants']
Mesa,35,Asia,[],business,ihkTtwiy0DYxWF5gv3ACYQ,"1236 E Baseline Rd Ste 102 Mesa, AZ 85204",AZ,-111.805341,4,33.3791486,TRUE,"[u'Asian Fusion', u'Sushi Bars', u'Restaurants']"
Phoenix,6,Baja Fresh Mexican Grill Mexican Grill,[],business,dD2xiLM1_5Vg0pMvMIPZww,"4302 E Ray Rd Phoenix, AZ 85044",AZ,-111.991549,2,33.320748,TRUE,"[u'Mexican', u'Restaurants']"
Phoenix,5,Robeks Juice,[],business,E6dIiAqBWQ-7AjU5xlGhGg,"2815 W Peoria Ave Phoenix, AZ 85029",AZ,-112.1241562,4,33.5818256,TRUE,"[u'Food', u'Juice Bars & Smoothies', u'Restaurants']"
Litchfield Park,7,Deno's Pizza,[],business,9Wy2CxVwnKoT5X4GrGzfyw,"107 W Honeysuckle St Litchfield Park, AZ 85340",AZ,-112.3595377,3.5,33.4945805,TRUE,"[u'Pizza', u'Restaurants']"
Phoenix,281,Durant's,[],business,cN6aBxe2mQvrQlzk26LyRQ,"2611 N Central Ave Phoenix, AZ 85004",AZ,-112.0736348,4,33.4772147,TRUE,"[u'Steakhouses', u'Restaurants']"
Scottsdale,34,Zpizza,[],business,MagW3D2UDQaP6KHzhauUHw,"20511 N Hayden Rd Ste 110 Scottsdale, AZ 85255",AZ,-111.9060007,4,33.6717895,FALSE,"[u'Pizza', u'Restaurants']"
Phoenix,5,Marcia's Long Wongs,[],business,SPqPt-K6qzTutj_vWOgKGA,"5 W Baseline Rd Phoenix, AZ 85041",AZ,-112.0735285,3.5,33.3777493,TRUE,"[u'Chicken Wings', u'Chinese', u'Restaurants']"
Buckeye,5,Pizza Hut,[],business,d_I2nyM2Wlc_g6aWTdAkIQ,"1217 E US Highway 85 Buckeye, AZ 85326",AZ,-112.57475,4,33.372032,TRUE,"[u'Pizza', u'Restaurants']"
Peoria,35,On The Border,[],business,WM8sy8FjrU3PpxN_NI02ZA,"7873 W Bell Rd Peoria, AZ 85016",AZ,-112.226631,3,33.637679,TRUE,"[u'Mexican', u'Tex-Mex', u'Restaurants']"
Glendale,29,Chevys Fresh Mex,[],business,CmNCRMpiJVtaqYfd9X1INg,"7700 W Arrowhead Towne Ctr Glendale, AZ 85308",AZ,-112.2245556,3,33.6397913,TRUE,"[u'Mexican', u'Restaurants']"
Phoenix,10,Rainbow Donuts Bakery and Cafe,[],business,ntH7Mo1JZdkglMiQXZy3Bw,"2040 W Deer Valley Rd Ste A Phoenix, AZ 85027",AZ,-112.103672,4,33.68439,FALSE,"[u'Food', u'Donuts', u'Delis', u'Coffee & Tea', u'Restaurants']"
Phoenix,9,Chuy's Mesquite Broiler,[],business,A6OstDz-flrI84-EW8aILg,"830 E Greenway Pkwy Ste 100 Phoenix, AZ 85022",AZ,-112.0623802,3.5,33.6376847,FALSE,"[u'Mexican', u'Restaurants']"
Phoenix,36,Tomaso's,[],business,s0klhdxcAab0yEWw2Uuimw,"3225 E Camelback Rd Phoenix, AZ 85018",AZ,-112.0119734,3.5,33.5097979,TRUE,"[u'Restaurants', u'Italian']"
Mesa,4,Salsitas,[],business,57gnA8qjuFDtUvKMLmtR8A,"1501 E Main St Mesa, AZ 85203",AZ,-111.799487,2.5,33.414809,TRUE,"[u'Mexican', u'Restaurants']"
Cave Creek,5,Taco Bell,[],business,qMM8kigvEnfAkbTX7V1o_Q,"29844 N Cave Creek Road Cave Creek, AZ 85331",AZ,-111.990434,1.5,33.757546,TRUE,[u'Restaurants']
Tempe,30,Fuddruckers,[],business,0m0KmAYGvC34MfwJIEgCEA,"7470 S Priest Dr Tempe, AZ 85283",AZ,-111.963499,3.5,33.351139,TRUE,"[u'Burgers', u'Restaurants']"
Phoenix,434,True Food Kitchen,[],business,qjmCVYkwP-HDa35jwYucbQ,"2502 E Camelback Rd Phoenix, AZ 85016",AZ,-112.0272041,4,33.5102068,TRUE,"[u'American (New)', u'Restaurants']"
Chandler,89,Z'Tejas Southwestern Grill,[],business,z1Np8_oQECKWGCwJJ8864w,"7221 W Ray Rd Chandler, AZ 85226",AZ,-111.967861,3.5,33.319212,TRUE,"[u'Tex-Mex', u'Restaurants']"
Peoria,23,The Auld Dubliner,[],business,zDyx_BL0RJbXWpXSFfrf8g,"9780 W Northern Ave Peoria, AZ 85345",AZ,-112.2696392,3.5,33.5515066,FALSE,"[u'Irish', u'Restaurants']"
Phoenix,22,Yusef's Middle Eastern Restaurant Grocery & Deli,[],business,doEZAj-NSnoEMOJl5yXcNw,"15236 N Cave Creek Rd Phoenix, AZ 85032",AZ,-112.0306999,4,33.6253913,TRUE,"[u'Food', u'Grocery', u'Middle Eastern', u'Restaurants']"
Scottsdale,7,Legends Bar and Grill,[],business,f67EBuoqqgW4h1OcG_K7kA,"16640 N Scottsdale Rd Scottsdale, AZ 85254",AZ,-111.926212,3,33.637775,TRUE,"[u'Bars', u'Restaurants', u'American (Traditional)', u'Sports Bars', u'Nightlife']"
Phoenix,6,Arby's,[],business,iAHNZo6GF4C3N-z8u2C_ww,"2220 W Deer Valley Road Phoenix, AZ 85027",AZ,-112.107284,3.5,33.6840252,TRUE,"[u'Fast Food', u'Restaurants']"
Phoenix,15,Country Boys Restaurant,[],business,AVQMHeyByhkkYEeDbH9HbQ,"3202 E Greenway Rd Phoenix, AZ 85032",AZ,-112.013151,3.5,33.6283281,TRUE,"[u'American (New)', u'Restaurants']"
Phoenix,45,Raising Cane's,[],business,JbJDlfcnYiyZRXeHQcAVjg,"2715 W Peoria Ave Phoenix, AZ 85051",AZ,-112.1183771,3,33.5818515,TRUE,"[u'Fast Food', u'Southern', u'Chicken Wings', u'Restaurants']"
Phoenix,8,Pizza Hut,[],business,2bFBzziB3_yTGYcUerd9nw,"4708 S 48th S Phoenix, AZ 85040",AZ,-111.9787347,2,33.4052312,TRUE,"[u'Pizza', u'Restaurants']"
Chandler,69,Juan Jaime's,[],business,ObYf1kZVWfL8NocxUwGJKg,"2510 W Chandler Blvd Ste 1 Chandler, AZ 85224",AZ,-111.88516,3.5,33.3059969,TRUE,"[u'Mexican', u'Restaurants']"
Phoenix,63,Siu Wok,[],business,LbLVO7yqAJGEQ1nK6rEvHA,"3815 N Central Ave #A Phoenix, AZ 85012",AZ,-112.073196,3.5,33.491645,TRUE,"[u'Chinese', u'Restaurants']"
Phoenix,3,Bill Johnson's Big Apple Restaurants,[],business,v3VHHliT2rvWT0id5QiAgQ,"2906 W. Fairmount Ave Phoenix, AZ 85017",AZ,-112.1219894,3.5,33.4935146,TRUE,"[u'Steakhouses', u'Barbeque', u'Restaurants']"
Tempe,14,Gourmet Wok,[],business,b7-1zOz2yaQZ7JUHqHLAlA,"825 W Baseline Rd Tempe, AZ 85283",AZ,-111.9520135,3.5,33.3771903,TRUE,"[u'Chinese', u'Restaurants']"
Tempe,9,Pho Thang Long,[],business,Ggqoqg6AUdgCADUk4eDsDg,"414 S Mill Ave Suite 115 Tempe, AZ 85281",AZ,-111.940346,3,33.425938,FALSE,"[u'Vietnamese', u'Restaurants']"
Paradise Valley,12,Pei Wei Asian Diner Shops At Gainey Ranch,[],business,08Z_Zzp8PyEmWWpYurIO-Q,"8787 N Scottsdale Rd Paradise Valley, AZ 85253",AZ,-111.925924,3,33.5671501,TRUE,"[u'Asian Fusion', u'Chinese', u'Restaurants']"
Phoenix,15,ASAP California Pizza Kitchen,[],business,2VpSPb8IVXNqyVY5n7caGg,"Phoenix International Airport 3400 E Sky Harbor Blvd, Terminal 4 near Gate 10 Phoenix, AZ 85034",AZ,-112.0178286,2.5,33.4382789,TRUE,"[u'American (New)', u'Pizza', u'Restaurants']"
Avondale,9,#1 Brother's Pizza,[],business,osrG5x3grwQmQcvWgUdySw,"11435 W Buckeye Rd Ste A104 Avondale, AZ 85323",AZ,-112.30558,4.5,33.4340612,TRUE,"[u'Pizza', u'Restaurants']"
Mesa,3,Subway,[],business,chF0P_B8pTAy_4xvLTUZ_w,"1940 W Baseline Road Suite 2 Mesa, AZ 85202",AZ,-111.8768819,1.5,33.3790301,TRUE,"[u'Fast Food', u'Sandwiches', u'Restaurants']"
Tempe,18,Salazar Bros Mexican Food,[],business,FyyNwrfVbCG3BsYEM5csQA,"2700 W Baseline Rd Tempe, AZ 85282",AZ,-111.977079,4,33.3791269,TRUE,"[u'Mexican', u'Restaurants']"
Chandler,61,Old Spaghetti Factory,[],business,1ggcLvWPBDWnp5MVTRnoRg,"3155 W Chandler Blvd Ste 9 Chandler, AZ 85226",AZ,-111.897004,2.5,33.305675,TRUE,"[u'Restaurants', u'Italian']"
Phoenix,40,SteakenBurger / Long Wongs,[],business,lPAHpSIc2MvY06bWxrFRiw,"1961 W Dunlap Ave Phoenix, AZ 85021",AZ,-112.103575,3.5,33.567258,TRUE,"[u'Burgers', u'Cheesesteaks', u'Chicken Wings', u'Restaurants']"
Phoenix,10,Bobby C's Cafe,[],business,8Paw2C-StKOx7C5nSYNX1A,"2040 W Deer Valley Rd Ste A Phoenix, AZ 85027",AZ,-112.103672,4,33.68439,TRUE,"[u'Food', u'Donuts', u'Coffee & Tea', u'Cafes', u'Restaurants']"
Phoenix,85,Z'Tejas Southwestern Grill,[],business,24OmQWFTnbfGv-e8GyEMAw,"10625 N Tatum Blvd Phoenix, AZ 85028",AZ,-111.9770187,4,33.5834449,TRUE,"[u'Tex-Mex', u'Restaurants']"
Avondale,5,Senor Taco,[],business,P5YZ1_5L6NGBdDrQFFPVpg,"10220 W McDowell Rd Ste 100 Avondale, AZ 85392",AZ,-112.2797718,2.5,33.46469,TRUE,"[u'Mexican', u'Restaurants']"
Scottsdale,55,Zipps Sports Grill,[],business,E_TSzYjABEzD6DXsvjZnsg,"6501 E Greenway Pkwy Scottsdale, AZ 85254",AZ,-111.9404813,3,33.6251792,TRUE,"[u'American (Traditional)', u'Restaurants']"
Phoenix,4,Rolibertos Mexican Food,[],business,flMu0Tz5RsaMzr6K8kg1EA,"3414 W Union Hills Dr Phoenix, AZ 85027",AZ,-112.132618,4,33.655256,TRUE,"[u'Mexican', u'Restaurants']"
Phoenix,54,zpizza,[],business,SAEr_2rJLNFr3aPv0DlSWg,"111 W Monroe St Ste 130 Phoenix, AZ 85003",AZ,-112.075677,3.5,33.450047,TRUE,"[u'Gluten-Free', u'Pizza', u'Vegan', u'Restaurants']"
Phoenix,7,Coco's Restaurant and Bakery,[],business,g43sL1u-iM6spXbMc6_oAA,"4601 E Thomas Rd Phoenix, AZ 85073",AZ,-111.981506,1.5,33.4797129,TRUE,"[u'American (Traditional)', u'Restaurants']"
Scottsdale,126,Flo's Chinese Restaurant,[],business,fowXs9zAM0TQhSfSkPeVuw,"15027 N Thompson Peak Parkway Scottsdale, AZ 85260",AZ,-111.875449,3.5,33.623019,TRUE,"[u'Chinese', u'Restaurants']"
Scottsdale,17,Dickey's Barbecue Pit,[],business,ymSMV5wMjFwcusoGRaqDWA,"7919 E Thomas Rd Ste 111 Scottsdale, AZ 85251",AZ,-111.9102319,4.5,33.4803901,TRUE,"[u'Barbeque', u'Restaurants']"
Chandler,44,Buca di Beppo,[],business,Lgqk00bglDyZfe5KbLhw6Q,"7111 West Ray Rd Chandler, AZ 85226",AZ,-111.9652346,3,33.3194165,TRUE,"[u'Restaurants', u'Italian']"
Phoenix,34,Off Da Hook Soul Food,[],business,JMZfcwARQ68n7GGsqmtdaA,"1804 W Glendale Ave. Phoenix, AZ 85021",AZ,-112.097523,3.5,33.538913,TRUE,"[u'Soul Food', u'Restaurants']"
Phoenix,12,Irie Jamaica Restaurant,[],business,iMVShfSP-6FE_8k-MDJfYQ,"2727 E Broadway Rd Phoenix, AZ 85040",AZ,-112.02249,3,33.406669,FALSE,"[u'Caribbean', u'Restaurants']"
Phoenix,5,Subway,[],business,f96lWMIAUhYIYy9gOktivQ,"555 N. Central Ave. Phoenix, AZ 85004",AZ,-112.073239,4,33.453814,TRUE,"[u'Fast Food', u'Sandwiches', u'Restaurants']"
Scottsdale,23,X-Tapa Joe's,[],business,TAlmdEr0RNWZh9IiUS_BLA,"7500 E Pinnacle Peak Rd Scottsdale, AZ 85255",AZ,-111.917449,2.5,33.69907,TRUE,"[u'Mexican', u'Restaurants']"
Phoenix,27,In N Out Burger,[],business,dec2TzjQ1skgmugHKJyLwQ,"2770 W Peoria Ave Phoenix, AZ 85029",AZ,-112.1207132,4,33.5820359,TRUE,"[u'Burgers', u'Restaurants']"
Scottsdale,8,Outback Steakhouse,[],business,PMRhNmJmHjugB9NXgn5mug,"4180 N Drinkwater Boulevard Scottsdale, AZ 85251",AZ,-111.9218068,3,33.4960341,FALSE,[u'Restaurants']
Mesa,28,Top Shelf Mexican Restaurant,[],business,J3VvIU1ZDqg9a9e7zK-QSQ,"1976 W Southern Ave Mesa, AZ 85202",AZ,-111.8744982,3,33.3931452,TRUE,"[u'Mexican', u'Restaurants']"
Mesa,3,Qdoba Mexican Grill,[],business,S-QjTijhGYvEKvDznUTqeg,"1855 S Country Club Dr Mesa, AZ 85210",AZ,-111.8402013,2,33.3809648,FALSE,"[u'Mexican', u'Restaurants']"
Phoenix,170,Da Vàng,[],business,Zy2vca7i9QFGRKa4m0C__A,"4538 N 19th Ave Phoenix, AZ 85015",AZ,-112.0999,4,33.5030185,TRUE,"[u'Vietnamese', u'Restaurants']"
Mesa,4,Carl's Jr 828,[],business,9BOeSWUvmh4rRhpQNgrdqA,"1440 W Southern Avenue Mesa, AZ 85202",AZ,-111.8630261,2.5,33.3932466,TRUE,[u'Restaurants']
Glendale,171,Haus Murphy's,[],business,zOCdVUKUN3b-obT67Qjyww,"5739 W Glendale Ave Glendale, AZ 85301",AZ,-112.1830859,4,33.5384434,TRUE,"[u'German', u'Restaurants']"
Phoenix,3,Wendy's Old Fashioned Hamburgers,[],business,rBQq2DX9TzeAWVleT1eZdg,"2024 E Camelback Rd Phoenix, AZ 85016",AZ,-112.0375533,4.5,33.5094163,TRUE,"[u'Burgers', u'Restaurants']"
Tempe,303,La Bocca Urban Pizzeria + Wine Bar,[],business,YQvg0JCGRFUkb6reMMf3Iw,"699 S Mill Ave Tempe, AZ 85281",AZ,-111.9396222,4,33.42344083,TRUE,"[u'Wine Bars', u'Bars', u'Pizza', u'Nightlife', u'Restaurants']"
Casa Grande,3,Casa Grande Steakhouse,[],business,24g1ECQgdTw3BHokYCFWZA,"109 E 2nd St Casa Grande, AZ 85122",AZ,-111.7534608,2.5,32.87684802,TRUE,"[u'Steakhouses', u'Restaurants']"
Glendale,3,Subway,[],business,BrTeICW0znNrZRFO60wuBA,"5026 W Cactus Rd Ste 2 Glendale, AZ 85304",AZ,-112.1666303,1,33.5963281,TRUE,"[u'Fast Food', u'Sandwiches', u'Restaurants']"
Phoenix,107,The Blue Fin,[],business,kaIue7GRCmkPzDeHDBTttQ,"1401 N Central Ave Phoenix, AZ 85004",AZ,-112.073569,4,33.4640983,TRUE,"[u'Asian Fusion', u'Japanese', u'Restaurants']"
Mesa,5,Gyro House,[],business,gpAAY-SdEFyKpk8NSSHsgQ,"3617 E Southern Ave Ste 4 Mesa, AZ 85206",AZ,-111.7531446,2.5,33.3936881,TRUE,"[u'Greek', u'Mediterranean', u'Restaurants']"
Phoenix,22,First Watch,[],business,E_wJCQ9L_0w5tJyrvr0lJQ,"9645 N Black Canyon Hwy Phoenix, AZ 85021",AZ,-112.1164379,4,33.5745059,TRUE,"[u'Breakfast & Brunch', u'Restaurants']"
Tempe,15,Stan's Metro Deli,[],business,ptHERlqZTrluKh1DJUTz1w,"414 S Mill Ave Ste 115 Tempe, AZ 85281",AZ,-111.940346,3.5,33.425938,FALSE,"[u'Delis', u'Restaurants']"
Phoenix,21,Deemos American Grill,[],business,JxgoluY8hnC34cys_f80xA,"2501 E Camelback Rd Ste 30 Phoenix, AZ 85016",AZ,-112.0273984,2,33.5093706,FALSE,"[u'American (Traditional)', u'Restaurants']"
Chandler,9,Denny's,[],business,OedV_QX8aD7MeLqshhWkCQ,"1750 W Chandler Blvd Chandler, AZ 85224",AZ,-111.872409,3.5,33.306513,TRUE,"[u'American (Traditional)', u'Restaurants']"
Fountain Hls,8,Pei Wei Asian Diner,[],business,Fs9fs_vX4PppqJvEkfr0BQ,"14835 E Shea Blvd Ste 100 Fountain Hls, AZ 85268",AZ,-111.7614115,3.5,33.579571,FALSE,"[u'Asian Fusion', u'Chinese', u'Restaurants']"
Gilbert,6,Peter Piper Pizza,[],business,oAxR0TJhPHMrN_hjQWBWMA,"127 E Williams Field Rd Gilbert, AZ 85296",AZ,-111.7383162,4,33.3345698,TRUE,"[u'Pizza', u'Restaurants']"
Phoenix,5,Kabob Palace,[],business,lzS66BeoLL0GRn1KrlmmFg,"7816 N 27th Ave Phoenix, AZ 85073",AZ,-112.117261,3,33.551991,TRUE,"[u'Greek', u'Mediterranean', u'Middle Eastern', u'Restaurants']"
Phoenix,57,Gourmet House of Hong Kong,[],business,ykfTh6HI219NoMsWBxulxw,"1438 E McDowell Rd Phoenix, AZ 85006",AZ,-112.0503324,3.5,33.4659091,TRUE,"[u'Chinese', u'Restaurants']"
Phoenix,19,Chick-Fil-A,[],business,cWBqZThx4RWNzPJbJ_oXOg,"12031 N Tatum Rd Phoenix, AZ 85028",AZ,-111.9805614,3.5,33.5967969,TRUE,"[u'Fast Food', u'Restaurants']"
Buckeye,4,Sonic Drive-In of Buckeye,[],business,dRSs6fSLY_DQTWOeo09Thw,"1111 E US Hwy 85 Buckeye, AZ 85326",AZ,-112.57475,4,33.372032,TRUE,"[u'Fast Food', u'Restaurants']"
Scottsdale,30,Al Hamra,[],business,49RRQ0nE8XugVuvowiVv2g,"8900 E Pinnacle Peak Rd Scottsdale, AZ 85255",AZ,-111.888462,3.5,33.700033,TRUE,"[u'Indian', u'Restaurants']"
Phoenix,78,Compass Arizona Grill,[],business,4waggbCK-MSE9dbIdSMfPA,"The Hyatt Regency 122 N Second St Phoenix, AZ 85004",AZ,-112.071886,3.5,33.449858,TRUE,"[u'American (New)', u'Restaurants']"
Phoenix,5,China House Buffet,[],business,tyHtzC4k-MvsTZOBZ8YaWw,"1520 W Indian School Rd Phoenix, AZ 85015",AZ,-112.092068,2.5,33.495304,FALSE,"[u'Buffets', u'Restaurants']"
Avondale,3,Wild Noodles,[],business,nhSn37Oz62OP1hyFzYlc4g,"9915 W McDowell Rd Avondale, AZ 85233",AZ,-112.2727574,1.5,33.4645731,FALSE,"[u'American (New)', u'Restaurants']"
Gilbert,4,Takara,[],business,3n6fuacXHobOr16Ks2t2LQ,"53 N Val Vista Dr Gilbert, AZ 85234",AZ,-111.7555606,4,33.3511761,FALSE,"[u'Japanese', u'Restaurants']"
Scottsdale,44,Sushi On Shea,[],business,Y2Lfzulh_D9nNcuH49UT4w,"7000 E Shea Blvd Ste 1510 Scottsdale, AZ 85254",AZ,-111.930192,4,33.582555,TRUE,"[u'Sushi Bars', u'Japanese', u'Restaurants']"
Phoenix,5,Subway,[],business,FucrEEO2laIlAnIZ_n6cTA,"19401 N Cave Creek Rd Ste 1 Phoenix, AZ 85024",AZ,-112.030244,2.5,33.662594,TRUE,"[u'Fast Food', u'Sandwiches', u'Restaurants']"
Casa Grande,3,McDonald's,[],business,FHdqbqYiGhWljYOJq0gH-Q,"2824 N Pinal Ave Casa Grande, AZ 85222",AZ,-111.755865,3.5,32.939513,TRUE,"[u'Fast Food', u'Restaurants']"
Phoenix,32,Corner Bakery Cafe,[],business,di2QHs2SrY0XFHcfAq_k2A,"455 N 3rd St Ste 1065 Phoenix, AZ 85004",AZ,-112.0693177,3.5,33.4527955,TRUE,"[u'Breakfast & Brunch', u'Cafes', u'Sandwiches', u'Restaurants']"
Guadalupe,22,Waffle House,[],business,PaSVgXHxbywiEqpv4kap3g,"1801 W Baseline Rd Guadalupe, AZ 85283",AZ,-111.9664404,3.5,33.3779808,TRUE,"[u'Breakfast & Brunch', u'Restaurants']"
Phoenix,7,Bucca di Beppo,[],business,MLzh2-7zSnPdFmNcuSaaJQ,"83rd St & Bell Phoenix, AZ",AZ,-112.237586,3.5,33.65656,TRUE,[u'Restaurants']
Phoenix,4,Schlotzsky's,[],business,4O8NrAHjO6Tb_Xa_YT-Xjg,"9016 N Black Canyon Hwy Phoenix, AZ 85051",AZ,-112.1178872,4,33.5679047,TRUE,"[u'Fast Food', u'Sandwiches', u'Restaurants']"
Phoenix,3,Rock and Roll Patio,[],business,QBWJWwL7YV-sw8geqJvU4A,"8510 N 7th St Phoenix, AZ 85020",AZ,-112.0652985,4.5,33.5610486,TRUE,"[u'Burgers', u'American (Traditional)', u'Restaurants']"
Tempe,42,Smashburger,[],business,211DetkFdxd8sQ54CMU35A,"2000 E Rio Salado Pkwy Ste 1155 Tempe, AZ 85281",AZ,-111.9043028,4,33.4329724,TRUE,"[u'Burgers', u'Hot Dogs', u'American (New)', u'Restaurants']"
Tempe,6,Life Cafe,[],business,tm-lmBXzrBeKUDj_eQVZYQ,"Lifetime Fitness 1616 W Ruby Dr Tempe, AZ 85284",AZ,-111.9647327,4.5,33.3402863,TRUE,"[u'Cafes', u'Restaurants']"
Gilbert,3,Indigo Joe's,[],business,OQshbYutpgM8LcBK4mbFdw,"1939 E Basline Suite 103 Gilbert, AZ 85233",AZ,-111.788968,3.5,33.377523,TRUE,"[u'Burgers', u'Bars', u'Nightlife', u'Restaurants']"
Phoenix,7,Lantana Grille,[],business,faitVIiNezSN0ogZQSZPWQ,"Squaw Peak 7677 N 16th St Phoenix, AZ 85020",AZ,-112.0474454,2.5,33.5478352,FALSE,"[u'Hotels & Travel', u'American (Traditional)', u'Restaurants', u'Event Planning & Services', u'Hotels']"
Phoenix,9,Two Hippies Beach House!,[],business,Zip1ElzGhsr-2Pw6EXWyPA,"501 E Camelback Rd Phoenix, AZ 85012",AZ,-112.0670453,2.5,33.509038,TRUE,"[u'Fast Food', u'Restaurants']"
Phoenix,26,Jimmy John's,[],business,hVKTsUaaJkOKR9v5BY04_A,"11 W Washington St Ste 175 Phoenix, AZ 85003",AZ,-112.0772,3,33.449188,TRUE,"[u'Sandwiches', u'Restaurants']"
Mesa,28,Buono's Pizza,[],business,m3O2EFVs3eo8s40MGGzmsA,"2023 W Guadalupe Rd Ste 12 Mesa, AZ 85202",AZ,-111.8774978,4,33.3640435,TRUE,"[u'Pizza', u'Restaurants']"
Chandler,85,Famous Dave's,[],business,u9MKnG0PqI8N7ixSfrrTiw,"3250 W Frye Rd Chandler, AZ 85226",AZ,-111.898601,4,33.298212,TRUE,"[u'Barbeque', u'Restaurants']"
Mesa,5,Taco Del Mar,[],business,AlksaJXH23qvwQo0Id23WA,"1239 S Higley Rd Mesa, AZ 85206",AZ,-111.718769,2.5,33.391749,FALSE,"[u'Fast Food', u'Mexican', u'Restaurants']"
Glendale,4,Abdeen International Market and Cafe LLC,[],business,Z-NqgB1w0VpkwYpuO64rnw,"15224 N 59th Ave Glendale, AZ 85306",AZ,-112.186155,5,33.624272,FALSE,"[u'Middle Eastern', u'Restaurants']"
Phoenix,6,Nothing But Noodles,[],business,p_Bbe2f1dfZ0iCgdtNieVg,"2160 E Baseline Rd Phoenix, AZ 85073",AZ,-112.0329027,2,33.3779323,FALSE,[u'Restaurants']
Scottsdale,48,Toyama,[],business,_L9E4eZWX0vdePNjU1xtuQ,"23415 N Scottsdale Rd Ste 105 Scottsdale, AZ 85255",AZ,-111.924054,4.5,33.701112,TRUE,"[u'Sushi Bars', u'Japanese', u'Restaurants']"
Phoenix,12,Z-Grill,[],business,j7-YRDU63fw975an55zHGg,"Zam Zam Whole Foods 1638 N 40th St Phoenix, AZ 85008",AZ,-111.9958498,4,33.4670146,TRUE,"[u'Indian', u'Pakistani', u'Restaurants']"
Phoenix,38,Bajio Mexican Grill,[],business,7Zo1DzdwZlGMxPu1AFMSsw,"2501 W Happy Valley Rd Phoenix, AZ 85085",AZ,-112.1112521,3.5,33.71112237,TRUE,"[u'Mexican', u'Restaurants']"
Phoenix,81,Donovan's Steak and Chop House,[],business,ar90fbRbQtiyZLtwjwwXUg,"3101 E Camelback Rd Phoenix, AZ 85016",AZ,-112.015207,4,33.509554,TRUE,"[u'Seafood', u'Steakhouses', u'Restaurants']"
Phoenix,199,Hana Japanese Eatery,[],business,h6jfMpTZpNduLG0wE2tbaw,"5524 N 7th Ave Phoenix, AZ 85013",AZ,-112.0824683,4,33.5173991,TRUE,"[u'Sushi Bars', u'Japanese', u'Restaurants']"
Phoenix,107,Rito's Market & Mexican Take Out,[],business,Xo9Im4LmIhQrzJcO4R3ZbA,"907 N 14th St Phoenix, AZ 85006",AZ,-112.0520855,4.5,33.457939,TRUE,"[u'Mexican', u'Restaurants']"
Phoenix,8,Subs by Jim,[],business,lwgBIboXZ4j9uuZthAvTEw,"4041 E Thomas Rd Ste 120 Phoenix, AZ 85018",AZ,-111.994039,3.5,33.479852,TRUE,"[u'Sandwiches', u'Restaurants']"
Phoenix,15,Duck & Decanter,[],business,wki-Qlp3OWgH0XtZ-Jz_WQ,"One North Central Ave Phoenix, AZ 85004",AZ,-112.073195,3.5,33.448654,TRUE,"[u'Food', u'Coffee & Tea', u'Sandwiches', u'Restaurants']"
Tempe,16,Red Robin,[],business,x737irkRUs8ABGRc2ILLAA,"1375 W Elliot Rd Tempe, AZ 85284",AZ,-111.960415,3.5,33.348621,TRUE,"[u'Burgers', u'Restaurants']"
Scottsdale,65,Soi 4 Bangkok Eatery,[],business,NCtzWkMbE13r2M2Sg0wH9w,"8787 N Scottsdale Rd Ste 104 Scottsdale, AZ 85253",AZ,-111.9254708,4,33.56680507,TRUE,"[u'Thai', u'Restaurants']"
Chandler,6,I-Mart,[],business,dkROlq5s9qBt3Y0ERB80WQ,"928 N Alma School Rd Chandler, AZ 85224",AZ,-111.8591652,3.5,33.3191975,TRUE,"[u'Food', u'Grocery', u'Convenience Stores', u'Halal', u'Restaurants']"
Glendale,4,Esther's Jamaican Food,[],business,m6mWau12NsXYvwlwAJIUxw,"5025 W Olive Ave Glendale, AZ 85302",AZ,-112.1674092,4.5,33.5674956,TRUE,"[u'Caribbean', u'Restaurants']"
Scottsdale,22,Thai Pan Fresh Exotic Cuisine,[],business,WIcDFpHEnC3ihNmS7-6-ZA,"7605 E Pinnacle Peak Rd Scottsdale, AZ 85255",AZ,-111.9174872,3.5,33.6986497,FALSE,"[u'Thai', u'Restaurants']"
Tempe,7,Sonic Drive-In,[],business,yqnMi8scUmylZQ1sSK94GA,"630 W Elliot Rd Tempe, AZ 85283",AZ,-111.947,3,33.349683,TRUE,"[u'American (Traditional)', u'Fast Food', u'Restaurants']"
Mesa,4,Carbajal's Mexican Food,[],business,4J-zAaVif1-R-xCJ-2N7Aw,"7302 E Main St Mesa, AZ 85207",AZ,-111.6738306,4,33.4156013,TRUE,"[u'Mexican', u'Restaurants']"
Scottsdale,25,Relish Burger Bistro,[],business,BO_TJFFJyXu8i2rW83hG3g,"6000 E Camelback Rd Scottsdale, AZ 85251",AZ,-111.9514408,4,33.5019602,TRUE,"[u'Burgers', u'Restaurants']"
Glendale,18,Fuddruckers,[],business,OEQMqI-duBA1gbBFzi7BPw,"7704 W Bell Rd Glendale, AZ 85308",AZ,-112.225168,3,33.639331,TRUE,"[u'Burgers', u'Restaurants']"
Phoenix,104,Garage Wine and Tap,[],business,YJoph5UiUZ3BEb49vyFAuQ,"1534 E Bethany Home Rd Phoenix, AZ 85014",AZ,-112.0487368,3.5,33.5237453,TRUE,"[u'Bars', u'American (New)', u'Nightlife', u'Restaurants']"
Scottsdale,3,Taylor's Cafe,[],business,CLOZxIuHNOpsJv48hKgk_A,"14891 Northsight Blvd Ste 119 Scottsdale, AZ 85260",AZ,-111.8963279,2.5,33.620562,FALSE,"[u'Sandwiches', u'Restaurants']"
Scottsdale,57,Lao Thai,[],business,NBvrN_ZDpmBCsPI1qLj1Qw,"2200 N Scottsdale Rd Scottsdale, AZ 85257",AZ,-111.926688,4,33.471677,TRUE,"[u'Thai', u'Restaurants']"
Phoenix,10,Taqueria Guadalajara,[],business,tigIXsvKMb4xCiZP56oSPQ,"3308 N 27th Ave Phoenix, AZ 85017",AZ,-112.1172095,4.5,33.4861786,TRUE,"[u'Mexican', u'Restaurants']"
Tempe,10,Rosati's Pizza,[],business,r6rb6j66fAhqrvAqYJiiQw,"1730 E Warner Rd Tempe, AZ 85284",AZ,-111.9680279,3.5,33.3345567,TRUE,"[u'Pizza', u'Restaurants']"
Surprise,3,Subway,[],business,C1Ke_yh42mOFNac59UGYOg,"12801 W Bell Road Suite 6 Surprise, AZ 85374",AZ,-112.3554635,3,33.6385838,TRUE,[u'Restaurants']
Tempe,4,Mamacita's Cantina,[],business,DmO9vsVgGwwu7QdZPoi6xA,"216 E University Dr Tempe, AZ 85281",AZ,-111.936052,3.5,33.422317,TRUE,"[u'Bars', u'Mexican', u'Nightlife', u'Restaurants']"
Phoenix,38,Olive Garden Italian Restaurant ,[],business,OIBrslaVxFxaaGUsYFUujg,"10223 N Metro Parkway E Phoenix, AZ 85051",AZ,-112.120266,3.5,33.58041,TRUE,"[u'Restaurants', u'Italian']"
Casa Grande,3,Hong Kong Kitchen,[],business,c6O2rCTMbC4dDJe8DbXiuA,"314 E Florence Boulevard Casa Grande, AZ 85222",AZ,-111.7500696,4.5,32.8796747,TRUE,[u'Restaurants']
Glendale,24,Ninfa's Mexican Kitchen,[],business,JdF1nBsMx6p0WwKXIJlfxA,"20004 N  67th Ave Ste 500 Glendale, AZ 85308",AZ,-112.203707,3,33.665965,FALSE,"[u'Mexican', u'Restaurants']"
Phoenix,9,Salsita's Mexican Food,[],business,X0BsBdPGAyo9gLPIRJ9PFw,"922 N 16th St Phoenix, AZ 85006",AZ,-112.0476685,4,33.4579565,TRUE,"[u'Mexican', u'Restaurants']"
Phoenix,3,China Buffet 2000,[],business,FJgO8d_Lx0P1A0KOiRfuFg,"7337 W Indian School Rd Phoenix, AZ 85033",AZ,-112.2173778,1.5,33.4946902,FALSE,"[u'Buffets', u'Chinese', u'Restaurants']"
Phoenix,4,Manuel's Mexican Restaurant & Cantina,[],business,0l9e2aBYZfogiSUyxJEL3Q,"5509 N 7th St Phoenix, AZ 85014",AZ,-112.063844,3.5,33.517438,FALSE,"[u'Mexican', u'Restaurants']"
Phoenix,17,Federicos Mexican Food,[],business,DlLduXXSwjkm7OL4Z1iH1A,"10802 N 32nd Street Phoenix, AZ 85028",AZ,-112.0131157,3,33.5846927,TRUE,"[u'Mexican', u'Restaurants']"
Glendale,15,Island Teriyaki,[],business,GfMRsE7rYqNyfC6wUYZkzA,"5932 W Bell Road Suite D112 Glendale, AZ 85308",AZ,-112.18688,3.5,33.640488,TRUE,"[u'Hawaiian', u'Restaurants']"
Laveen,3,Wienerschnitzel,[],business,F5gT_aH4Q9KQWSEnYdyNlQ,"5220 W Baseline Rd Laveen, AZ 85339",AZ,-112.170822,1.5,33.377792,FALSE,"[u'Fast Food', u'Restaurants']"
Glendale,7,Tully's Coffee,[],business,xSaeulDx3iebtWmuRjcoyw,"9404 W Westgate Blvd Ste C103 Glendale, AZ 85305",AZ,-112.2618237,3,33.5343545,FALSE,"[u'Food', u'Coffee & Tea', u'American (New)', u'Restaurants']"
Chandler,9,Honmachi Grill,[],business,IoHpWh3_DNnjHyx6uX1lEA,"3450 W Chandler Blvd Chandler, AZ 85226",AZ,-111.9016698,4,33.3057002,FALSE,"[u'Sushi Bars', u'Japanese', u'Restaurants']"
Phoenix,402,Postino Central,[],business,3n9mSKySEv3G03YjcU-YOQ,"5144 N Central Ave Phoenix, AZ 85012",AZ,-112.0740123,4.5,33.5127699,TRUE,"[u'Wine Bars', u'Bars', u'Restaurants', u'Nightlife', u'Italian']"
Peoria,13,Taps Signature Cuisine & Bar,[],business,OSsueRKTxM0MEbgIRsUebA,"9780 W Northern Ave Ste 1110 Peoria, AZ 85345",AZ,-112.2701979,3,33.5537698,TRUE,"[u'American (New)', u'Restaurants']"
Scottsdale,27,Super Burrito,[],business,f_2iPdAHrcKMwMFJSRdFZQ,"2601 N Scottsdale Rd Scottsdale, AZ 85257",AZ,-111.9258,3,33.476983,TRUE,"[u'Mexican', u'Restaurants']"
Phoenix,17,Turf Paradise Race Course,[],business,O_X3PGhk3Y5JWVi866qlJg,"1501 W Bell Rd Phoenix, AZ 85023",AZ,-112.0914962,4,33.6400963,TRUE,"[u'Active Life', u'Arts & Entertainment', u'Stadiums & Arenas', u'Horse Racing', u'Restaurants']"
Paradise Valley,17,El Torito Mexican Restaurant & Cantina,[],business,h3T8DTVDtPzy9ICw3UixdQ,"6200 N Scottsdale Rd Paradise Valley, AZ 85253",AZ,-111.9258643,4,33.5277785,FALSE,"[u'Mexican', u'Restaurants']"
Goodyear,3,Toscano's Grill,[],business,eaALRpmBxLeBl17U2LrRHg,"16262 W Clubhouse Dr Goodyear, AZ 85338",AZ,-112.4082939,2.5,33.4810869,TRUE,"[u'Restaurants', u'Italian']"
Scottsdale,8,4th Floor Grille & Sports Bar,[],business,bx5Yc7-_E8wz3Lahpq88mQ,"5001 N Scottsdale Rd Scottsdale, AZ 85250",AZ,-111.92575,3.5,33.510055,TRUE,"[u'Bars', u'Restaurants', u'American (Traditional)', u'Sports Bars', u'Nightlife']"
Glendale,54,Rock Bottom Restaurant and Brewery,[],business,m34siNIv_F15LIzkmxP7-g,"7640 W Bell Rd Glendale, AZ 85308",AZ,-112.2234146,3.5,33.6385506,TRUE,"[u'American (Traditional)', u'Restaurants']"
Phoenix,6,Pete's Fish & Chips,[],business,zU8IfotOLryhaz5okWx6cA,"3715 E Van Buren St Phoenix, AZ 85008",AZ,-112.001533,2.5,33.45111,TRUE,"[u'Seafood', u'Fish & Chips', u'Restaurants']"
Chandler,6,Ellie's Native & Mexican Food,[],business,fiXqY-62WJdVsEVOFQsN4g,"3140 S Gilbert Rd Ste 3 Chandler, AZ 85286",AZ,-111.7896154,3.5,33.260838,FALSE,"[u'Mexican', u'Restaurants']"
Scottsdale,12,Blu Burger Grille,[],business,IF-BrFA4srTmLHk_fxOKkA,"15425 N Scottsdale Rd Suite 200 Scottsdale, AZ 85254",AZ,-111.924591,3,33.626109,FALSE,"[u'Burgers', u'Restaurants']"
Scottsdale,3,Gabio's Pizzeria,[],business,H5e_LE7vrwKc5QQBSJ6PMQ,"6501 E Greenway Pkwy Ste 108 Scottsdale, AZ 85254",AZ,-111.9404813,2,33.6251792,FALSE,"[u'Pizza', u'Restaurants']"
Phoenix,11,North Fattoria Italiano,[],business,GpK-hwVb08ZFJO_xPboKLw,"4925 N 40th St Phoenix, AZ 85018",AZ,-111.995296,4,33.5087485,TRUE,"[u'Restaurants', u'Italian']"
Buckeye,8,Argentos Pizza,[],business,kbO05xSzzxn4LXfPLL5qvA,"805 E Monroe Ave Buckeye, AZ 85326",AZ,-112.578859,4.5,33.370363,TRUE,"[u'Pizza', u'Restaurants']"
Phoenix,4,Jack-In-the Box Drive Thru,[],business,ajf3Myr1PKX9RaLS_Ukc8A,"17017 N Cave Creek Road Phoenix, AZ 85032",AZ,-112.030397,3,33.641141,TRUE,[u'Restaurants']
Phoenix,27,Mi Pueblo Mexican Food,[],business,Yb2pNCxYR32XKmpirqJqeQ,"710 E Union Hills Dr Phoenix, AZ 85024",AZ,-112.064207,4,33.655901,TRUE,"[u'Mexican', u'Restaurants']"
Mesa,7,Panda Express,[],business,0SQmfh7ppX3HnYx9SxmReA,"921 N Dodson Rd Mesa, AZ 85201",AZ,-111.8314724,3,33.4151843,TRUE,"[u'Fast Food', u'Restaurants']"
Phoenix,79,Thai E-San,[],business,VbXy3tH5RAu7HjT7VeMMgA,"616 W Indian School Rd Phoenix, AZ 85013",AZ,-112.0822129,3.5,33.4951554,TRUE,"[u'Thai', u'Restaurants']"
Phoenix,5,Chi Chi's Tacos,[],business,5CWKlH0uyOUF5EZIyewMXg,"Phoenix, AZ 85004",AZ,-112.0685027,5,33.4528292,TRUE,"[u'Mexican', u'Restaurants']"
Chandler,3,Han Machi,[],business,tWQDGbTZO9WgQguo0Cw_RQ,"1949 W Ray Rd # 32 Chandler, AZ 85224",AZ,-111.874972,2.5,33.319493,TRUE,"[u'Seafood', u'Restaurants']"
Scottsdale,85,Joe's New York Pizza,[],business,4A628qyYpA4EhN6w6o-MYQ,"7321 E Shoeman Ln Scottsdale, AZ 85251",AZ,-111.9232551,3.5,33.5006293,TRUE,"[u'Pizza', u'Restaurants']"
Phoenix,55,Nick's,[],business,5BnsHDWrt2z-9d8AzSgkjw,"10810 N Tatum Blvd Phoenix, AZ 85028",AZ,-111.9788671,3.5,33.5839581,TRUE,"[u'Restaurants', u'Italian']"
Avondale,6,Tastings Wine Bar and Bistro,[],business,NleiJA9dpfKjhxe0cCD1MA,"1809 N Dysart Rd Avondale, AZ 85323",AZ,-112.3407907,2.5,33.4680145,FALSE,"[u'Wine Bars', u'Bars', u'Nightlife', u'Restaurants']"
Phoenix,72,Blue Agave Mexican Cantina,[],business,BFZHdg2TRrgw56CyqkSryA,"7000 E Mayo Blvd Ste 1056 Phoenix, AZ 85054",AZ,-111.9300279,3,33.6556844,TRUE,"[u'Mexican', u'Restaurants']"
Phoenix,6,Tariq Restaurant,[],business,UACSWwOwCFg58ycvb32-RQ,"5064 E McDowell Rd Phoenix, AZ 85008",AZ,-111.9728452,4,33.4656565,TRUE,"[u'Restaurants', u'African']"
Tempe,12,Raising Cane's,[],business,Rr233WRnykn1j-qU9KOzCg,"960 E University Dr Tempe, AZ 85281",AZ,-111.9244995,4.5,33.42240524,TRUE,"[u'American (New)', u'Restaurants']"
Phoenix,3,Village Inn,[],business,immAndhZ-o1qrlFrIw8YjQ,"4040 East Bell Rd Phoenix, AZ 85032",AZ,-111.994275,2.5,33.6408798,TRUE,"[u'American (Traditional)', u'Restaurants']"
Queen Creek,110,The Deli,[],business,TuuENwzxOFdDLY_oKCbFZw,"18914 E San Tan Blvd Queen Creek, AZ 85242",AZ,-111.6752675,4.5,33.21257481,TRUE,"[u'Delis', u'Sandwiches', u'Restaurants']"
Avondale,28,Islands Restaurant,[],business,FdAi2yvDJC1LPZOLhaoo6w,"10055 W McDowell Rd Avondale, AZ 85392",AZ,-112.276376,3.5,33.464303,TRUE,"[u'Bars', u'American (Traditional)', u'Burgers', u'Nightlife', u'Sports Bars', u'Restaurants']"
Phoenix,4,Cocina 10,[],business,KBoN62BQPvTVmcRz-Rb81Q,"308 N 2nd Ave Phoenix, AZ 85003",AZ,-112.0764371,4,33.4517161,TRUE,"[u'Mexican', u'Restaurants']"
Chandler,3,Dennys,[],business,PBcsBfduHaCBVLsgVvAkJQ,"7400 W Chandler Blvd Chandler, AZ 85226",AZ,-111.9684613,3.5,33.3058174,TRUE,"[u'American (New)', u'Restaurants']"
Goodyear,4,Oasis Bagels,[],business,#NAME?,"17650 W Elliot Rd Ste A-155 Goodyear, AZ 85338",AZ,-112.4296587,5,33.3574524,TRUE,"[u'Breakfast & Brunch', u'Restaurants']"
Chandler,42,Hot Pot Caribbean Cuisine,[],business,aOR_hD-xXsnU6bgVcJ3uXw,"2081 N Arizona Ave 132 Chandler, AZ 85225",AZ,-111.8402382,4,33.3373133,TRUE,"[u'Caribbean', u'Restaurants']"
Chandler,3,Wendys Resteraunt,[],business,AqdFUHo_is8NfBh_n7tlHg,"1045 S Arizona Avenue Chandler, AZ 85248",AZ,-111.87918,3.5,33.2475,TRUE,[u'Restaurants']
Scottsdale,4,Black Fig Bistro,[],business,oTKHFsKtwOX73EiO5iDLgQ,"Inside Talking Stick Resort 9800 E Indian Bend Rd Scottsdale, AZ 85256",AZ,-111.8656895,3.5,33.5385954,TRUE,"[u'Cafes', u'Restaurants']"
Phoenix,271,America's Taco Shop,[],business,3l72FflaaeI0tWEAWN3-gQ,"2041 N 7th St Phoenix, AZ 85006",AZ,-112.0649272,3.5,33.4710214,TRUE,"[u'Mexican', u'Restaurants']"
Phoenix,56,Two Hippies Breakfast Joint,[],business,fJx0N4N0NbyHEeoDU9nH8g,"4306 N 7th Ave Phoenix, AZ 85013",AZ,-112.0835024,3,33.498858,TRUE,"[u'Breakfast & Brunch', u'Restaurants']"
Tempe,5,Dog Town Chili Dogs,[],business,oGwzYYdpLKH_d9T3af4-oQ,"690 S Mill Ave Ste 110 Tempe, AZ 85281",AZ,-111.9402738,3.5,33.4233153,TRUE,"[u'Hot Dogs', u'Restaurants']"
Maricopa,3,Dominos Pizza,[],business,40Sd5pjsCLXZ0J21SkU08g,"20046 N John Wayne Parkway Maricopa, AZ 85239",AZ,-112.0480732,2.5,33.0618328,TRUE,[u'Restaurants']
Phoenix,25,Chicago Gyros,[],business,K7Kxz1FX-VLPflPJgqqbGQ,"4730 E Indian School Ste 117 Phoenix, AZ 85018",AZ,-111.9798208,3.5,33.4948197,TRUE,"[u'Greek', u'Restaurants']"
Phoenix,6,Big Daddy's Sports Lounge,[],business,rwT9wCyXNATA36yqcb4JSg,"10618 N Cave Creek Rd Phoenix, AZ 85020",AZ,-112.0512709,3.5,33.5829517,TRUE,"[u'Nightlife', u'Bars', u'Pizza', u'Sports Bars', u'Restaurants']"
Phoenix,131,Pita Jungle,[],business,TnkxapUN4nWMz_z5h3qMYg,"1001 N. 3rd Avenue Suite 3 Phoenix, AZ 85003",AZ,-112.0775732,4,33.4587437,TRUE,"[u'Vegetarian', u'American (New)', u'Mediterranean', u'Restaurants']"
Mesa,6,Sizzler,[],business,TQNDCD50mkXwySB_qXmrXA,"1050 S Country Club Dr Mesa, AZ 85210",AZ,-111.8406513,3.5,33.395974,TRUE,"[u'Steakhouses', u'Seafood', u'American (Traditional)', u'Restaurants']"
Phoenix,29,Truckin' Good Food,[],business,4gxZ5tPEqm0QnRkILa9cNQ,"Phoenix, AZ 85044",AZ,-111.8901574,4.5,33.56906798,TRUE,"[u'Creperies', u'Food Stands', u'French', u'Restaurants']"
Scottsdale,12,Amore Sports Grill,[],business,RIgrLi3Jvz8lwAi04Fi8CA,"8763 E Bell Rd Scottsdale, AZ 85260",AZ,-111.8915244,2.5,33.6396856,TRUE,"[u'Bars', u'Restaurants', u'American (Traditional)', u'Sports Bars', u'Nightlife']"
Phoenix,4,Mighty Mikes,[],business,NvL35mHpScWI2wnLPmYQCw,"2720 W Bethany Home Rd Phoenix, AZ 85017",AZ,-112.11785,2,33.524313,TRUE,"[u'Fast Food', u'Restaurants']"
Gilbert,5,Freddy's Frozen Custard And Steakburger,[],business,YdZFMgT0GXFJpFoZvNvLNg,"151 E Williams Field Rd Gilbert, AZ 85295",AZ,-111.7868517,4,33.3059828,TRUE,"[u'American (Traditional)', u'Restaurants']"
Chandler,77,Mimita's Cuban Cafe,[],business,GV1P1x9eRb4iZHCxj5_IjA,"1950 N Arizona Ave Chandler, AZ 85225",AZ,-111.84268,3.5,33.334619,TRUE,"[u'Cuban', u'Cafes', u'Restaurants']"
Scottsdale,98,Big Earl's BBQ,[],business,WaO_hAunQrZ--vI308rHQA,"7213 E 1st Ave Scottsdale, AZ 85251",AZ,-111.9256266,3.5,33.4939313,TRUE,"[u'Barbeque', u'Restaurants']"
Chandler,32,Chase's Diner,[],business,kNnk3xy9eb4ym8nljQUGlA,"2040 N Alma School Rd Chandler, AZ 85224",AZ,-111.859503,3.5,33.3358289,TRUE,"[u'Breakfast & Brunch', u'Diners', u'Restaurants']"
Peoria,31,P.F. Chang's China Bistro,[],business,Eq6HUYlnhF__d1ie-I2RMg,"16170 N 83rd Ave Peoria, AZ 85385",AZ,-112.235193,3.5,33.634684,TRUE,"[u'Gluten-Free', u'Asian Fusion', u'Chinese', u'Restaurants']"
Glendale,4,Taco Bell,[],business,e8SKP917u2g0MTAaoGkCnA,"5705 W Bell Rd Glendale, AZ 85308",AZ,-112.18266,3,33.638349,TRUE,"[u'Fast Food', u'Restaurants']"
Chandler,3,Village Inn,[],business,5nazrxmIAH7RMgURdrSCIg,"2935 S Alma School Rd Chandler, AZ 85286",AZ,-111.85808,3,33.263328,TRUE,"[u'American (Traditional)', u'Restaurants']"
Tempe,3,Sunrise Cafe,[],business,KndgAfjs5BBxBq0-3EobXw,"1825 E University Dr Tempe, AZ 85281",AZ,-111.9092417,3.5,33.4218916,FALSE,"[u'Cafes', u'Restaurants']"
Tempe,42,Pei Wei Asian Diner,[],business,ykfL94V9KLT86s_tTzxwZQ,"1825 E Guadalupe Road Tempe, AZ 85283",AZ,-111.9100618,3.5,33.3637707,TRUE,"[u'Chinese', u'Restaurants']"
Glendale,48,Indian Maharaja Palace,[],business,NKSA0em3dHSGTyo6Eu-Waw,"5775 West Bell Rd Ste 5 Glendale, AZ 85308",AZ,-112.183988,3.5,33.6386895,TRUE,"[u'Indian', u'Restaurants']"
Phoenix,126,Joe's Diner,[],business,D1T1jtCfTfXD-cQE3QViow,"4433 N 16th St Phoenix, AZ 85016",AZ,-112.04725,4,33.5016589,TRUE,"[u'Breakfast & Brunch', u'Diners', u'Restaurants']"
Mesa,15,Yogi's Teriyaki and Grill,[],business,gHbS3YAfJFQwwuTMSe4H_A,"1130 W Grove Ave Mesa, AZ 85210",AZ,-111.8553658,3.5,33.3904462,TRUE,"[u'Japanese', u'Restaurants']"
Phoenix,23,TGI Friday's,[],business,OmxAvtMyIvCVm16NFIOOUA,"21001 N Tatum Blvd Phoenix, AZ 85050",AZ,-111.9746066,2.5,33.678615,TRUE,"[u'American (Traditional)', u'Restaurants']"
Chandler,124,The Living Room,[],business,q9WaFYhlOZCrfXJQTG5t_Q,"2475 W Queen Creek Rd Chandler, AZ 85248",AZ,-111.8830248,3.5,33.2614572,TRUE,"[u'American (New)', u'Restaurants']"
Tempe,10,Coco's Family Restaurant,[],business,bxgS6_HLquEvdCIyQxLefA,"1525 W Elliot Rd Tempe, AZ 85284",AZ,-111.9638547,2.5,33.3490228,TRUE,"[u'Bakeries', u'Food', u'American (Traditional)', u'Restaurants']"
Queen Creek,6,Mc Donald's,[],business,vfv0rermjJJkWD50Plo5ig,"20735 E Maya Rd Queen Creek, AZ 85242",AZ,-111.6360068,2,33.2536631,TRUE,"[u'Fast Food', u'Restaurants']"
Phoenix,5,Jimmy John's,[],business,SBMz9sXkko_-fxM1jkGG1w,"3317 E Bell Rd Phoenix, AZ 85032",AZ,-112.0103949,3,33.6405599,TRUE,"[u'Food', u'Food Delivery Services', u'Delis', u'Sandwiches', u'Restaurants']"
Florence,9,Old Pueblo Restaurant,[],business,LeBQ8Wc3BK_i_jPSbFpZHA,"505 N Main Street Florence, AZ 85232",AZ,-111.387416,3,33.0359595,TRUE,"[u'Caterers', u'Mexican', u'Event Planning & Services', u'Restaurants']"
Scottsdale,5,Paradise Bakery,[],business,e48-VRt7HsDr9GEcoCjPwA,"14884 N Pima Rd Scottsdale, AZ 85250",AZ,-111.8929067,3.5,33.6470543,TRUE,"[u'Bakeries', u'Food', u'Sandwiches', u'Restaurants']"
Chandler,4,Federico's,[],business,hF6KrTKdQBk0wDIkZmhFkA,"820 N 54th St Chandler, AZ 85226",AZ,-111.968917,3,33.316239,TRUE,"[u'Mexican', u'Restaurants']"
Tortilla Flat,33,Tortilla Flat Arizona,[],business,wSNe7xnQ0OvJ1UTLjikJeQ,"1 Main St Tortilla Flat, AZ 85290",AZ,-111.3898523,3.5,33.5264365,TRUE,"[u'Landmarks & Historical Buildings', u'Restaurants', u'Public Services & Government', u'Tex-Mex']"
Glendale,4,Applebee's,[],business,CH116u4TyXGaTaKFnliASA,"9330 W Northern Avenue Glendale, AZ 85305",AZ,-112.259952,3,33.552127,TRUE,"[u'American (Traditional)', u'Restaurants']"
Youngtown,3,Kindred Spirits,[],business,EeqCebn8ulIywYIvtnH0Lw,"11127 W Arizona Ave Youngtown, AZ 85363",AZ,-112.3000159,4.5,33.5928565,TRUE,"[u'Food', u'Coffee & Tea', u'Cafes', u'Restaurants']"
Chandler,17,In-N-Out,[],business,LaRo1F0bOEZo4p11bfkshA,"2910 E. Germann Rd. Chandler, AZ 85249",AZ,-111.7901104,4,33.2812044,TRUE,"[u'Fast Food', u'Restaurants']"
Phoenix,4,My Big Fat Greek Restaurant,[],business,hUvLxFBm2e2rWyUfqwvl-A,"2135 E Camelback Rd Phoenix, AZ 85016",AZ,-112.035636,2,33.507982,FALSE,"[u'Greek', u'Mediterranean', u'Restaurants']"
Gilbert,12,Over Easy,[],business,VDzgxHjMJj-1nMfJMtcSPQ,"211 E Warner Rd Gilbert, AZ 85296",AZ,-111.785202,4,33.335064,TRUE,"[u'Breakfast & Brunch', u'Restaurants']"
Glendale,3,Luna Pizza,[],business,KqPAH2aKppb-VhmX4GMvzQ,"20020 N 59th Ave Glendale, AZ 85311",AZ,-112.1868621,4.5,33.6668491,FALSE,"[u'Pizza', u'Restaurants']"
Chandler,31,Chipotle Mexican Grill,[],business,Cv4kZH9zN0wpN2Drn0qkLg,"890 N 54th St Chandler, AZ 85226",AZ,-111.968815,4,33.317422,TRUE,"[u'Tex-Mex', u'Restaurants']"
Tempe,6,Pizzeria Uno,[],business,IoKd6IJaSZnR8KZTuHw-yA,"690 S Mill Ave Ste 101 Tempe, AZ 85281",AZ,-111.9402738,2.5,33.4233153,FALSE,"[u'Pizza', u'Restaurants']"
Scottsdale,9,Prickly Pear Fresh Mexican Grill,[],business,#NAME?,"14740 N Northsight Boulevard Scottsdale, AZ 85260",AZ,-111.8980932,4,33.619412,FALSE,"[u'Mexican', u'Restaurants']"
Phoenix,3,Hot Dog On A Stick,[],business,o0Sm7tDF8wx6w9F2ZbdG2w,"MetroCenter 9617 N/ Metro Pkwy, Ste 2044 Phoenix, AZ 85051",AZ,-112.1246893,4,33.5736474,TRUE,"[u'Hot Dogs', u'Restaurants']"
Mesa,11,Islands,[],business,ASNxwg9dD4-_F4H1uNN2KQ,"1665 S Alma School Rd Mesa, AZ 85210",AZ,-111.8572424,3,33.383486,FALSE,"[u'Burgers', u'Hawaiian', u'Restaurants']"
Mesa,3,Huahchinango Mexican Grill,[],business,MEgXJ63_SPCl80tHSCoDLw,"1620 W University Dr Mesa, AZ 85201",AZ,-111.8659902,4.5,33.42218719,TRUE,"[u'Mexican', u'Restaurants']"
Peoria,3,Church's Chicken,[],business,q-UtIUIsL6W7_fxuxBfxeA,"8465 W Grand Ave Peoria, AZ 85345",AZ,-112.2353687,2,33.5774693,TRUE,"[u'Fast Food', u'Restaurants']"
Phoenix,33,Thai'd Up,[],business,kGEW4XXJQ2FS94gZv_N7VA,"110 N Central Ave Phoenix, AZ 85004",AZ,-112.0740194,3.5,33.4495566,TRUE,"[u'Thai', u'Restaurants']"
Phoenix,77,Taylor's Cafe,[],business,UxvOXcoCRFRAVhRB0D9imw,"5053 N 44th St Phoenix, AZ 85018",AZ,-111.9862703,3.5,33.5108208,TRUE,"[u'Breakfast & Brunch', u'Restaurants']"
Glendale,3,Bourbon Street Grill,[],business,08NQu7YaKY3m500DS7e5Tw,"7700 W Arrowhead Towne Center Glendale, AZ 85308",AZ,-112.225578,2.5,33.641598,TRUE,"[u'Cajun/Creole', u'Restaurants']"
Tempe,8,The Great Steak & Potato Co.,[],business,PLUh7zB-tARsfN8hIidVmQ,"2000 E Rio Salado Pkwy #1215 Tempe, AZ 85281",AZ,-111.9043028,3,33.4329724,TRUE,"[u'Sandwiches', u'Restaurants']"
Phoenix,39,Calabria Italian Kitchen,[],business,PwtYeGu-19v9bU4nbP9UbA,"2605 N 7th St Phoenix, AZ 85006",AZ,-112.0649071,4,33.4770399,FALSE,"[u'Restaurants', u'Sandwiches', u'Italian']"
Phoenix,32,Lone Star Steakhouse,[],business,gQjTs4BDNYSu9oJhkEsssw,"1743 E Camelback Rd Phoenix, AZ 85016",AZ,-112.0438992,3.5,33.5089901,TRUE,"[u'Steakhouses', u'Restaurants']"
Phoenix,8,Smoothie King,[],business,IPmktV4dkAw1jpHZRi5mVw,"15030 N Tatum Blvd Phoenix, AZ 85032",AZ,-111.978418,2.5,33.62365,TRUE,"[u'Food', u'Juice Bars & Smoothies', u'Gluten-Free', u'Restaurants']"
Phoenix,5,Quiznos,[],business,T2K-uBbU56bzGUuxs7ws5A,"Sky Harbor International Airport Terminal 4, Gate B12 Phoenix, AZ 85034",AZ,-112.0178286,2,33.4382789,TRUE,"[u'Fast Food', u'Sandwiches', u'Restaurants']"
Scottsdale,13,Café Conmigo,[],business,S-Wd--9bLPtgfs8CtTmGuQ,"4343 North Scottsdale Rd Scottsdale, AZ 85251",AZ,-111.9256855,4,33.4999272,TRUE,"[u'Food', u'Desserts', u'Coffee & Tea', u'Breakfast & Brunch', u'Restaurants']"
Goodyear,3,Panda Express,[],business,ZDRhfiNBUoXTbLARz8j-xQ,"1550 N Dysart Rd Ste A11 Goodyear, AZ 85338",AZ,-112.341878,2.5,33.463543,TRUE,"[u'Chinese', u'Restaurants']"
Peoria,9,Good China Restaurant,[],business,7Yr8FRINq9ZDdR30OLtEHg,"8987 W Olive Ave Ste 126 Peoria, AZ 85345",AZ,-112.239118,3.5,33.579694,TRUE,"[u'Chinese', u'Restaurants']"
Scottsdale,59,Barcelona Restaurants,[],business,6YWp7frmHKuPLYSlPyUdsw,"15440 E Greenway Hayden Lp Scottsdale, AZ 85260",AZ,-111.9242144,3,33.6259241,FALSE,"[u'American (New)', u'Nightlife', u'Dance Clubs', u'Restaurants']"
Mesa,37,Zur Kate,[],business,GzWiVvE6JDdBNowNVshItA,"4815 E Main St Ste 16 Mesa, AZ 85205",AZ,-111.726788,4,33.415073,TRUE,"[u'German', u'Restaurants']"
Phoenix,52,Tacos De Juarez,[],business,cgNIBHS2mLdbTRiodAT6EQ,"1017 N 7th St Phoenix, AZ 85006",AZ,-112.0650431,4,33.4594331,TRUE,"[u'Mexican', u'Restaurants']"
Phoenix,3,El Nuevo Taquito,[],business,XMYZk-YPCIUvOXffzVw_1g,"2201 N 83rd Ave Phoenix, AZ 85035",AZ,-112.23758,4.5,33.47118,TRUE,"[u'Mexican', u'Restaurants']"
Phoenix,61,Athenian Express,[],business,odhXwWaYZvD_icIN6f_DbA,"814 N Central Ave Phoenix, AZ 85004",AZ,-112.0740241,3.5,33.4574932,TRUE,"[u'Greek', u'Mediterranean', u'Sandwiches', u'Restaurants']"
Mesa,3,Tortas El Güero,[],business,oZnDl9u2CImtvvKrc3KmPw,"1449 E Main St Mesa, AZ 85203",AZ,-111.8004988,4,33.4151863,TRUE,"[u'Mexican', u'Restaurants']"
Chandler,8,Señor Taco,[],business,wWvInCI38F80lqLvnW26hg,"4200 S Arizona Ave Chandler, AZ 85248",AZ,-111.8420327,4,33.24549818,TRUE,"[u'Food', u'Mexican', u'Restaurants']"
Phoenix,70,Miracle Mile Delicatessen,[],business,fmuj7u1gflmEjW-h0v9bwg,"1949 E Camelback Rd Ste #160 Phoenix, AZ 85016",AZ,-112.040116,3.5,33.507557,TRUE,"[u'Delis', u'Restaurants']"
Phoenix,4,Jack In The Box,[],business,XaMp0myaLiXWRxrzYzwQxw,"1921 W Broadway Phoenix, AZ 85041",AZ,-112.0999357,4.5,33.4067245,TRUE,"[u'Fast Food', u'Restaurants']"
Glendale,4,Bill Johnson's Big Apple Restaurant,[],business,rj9Gt5Sifo-iN44vSfdKpQ,"7322 W Bell Rd Glendale, AZ 85308",AZ,-112.2163378,3,33.6383272,FALSE,"[u'Barbeque', u'Restaurants']"
Sun City West,19,Nan Jing,[],business,Wg_mT_9_tLbsLfzTtnOBqA,"13606 W Camino Del Sol Sun City West, AZ 85375",AZ,-112.355266,3.5,33.65498,TRUE,"[u'Seafood', u'Chinese', u'Restaurants']"
Phoenix,17,Jerk Hut Jamaican Grille,[],business,iDga4CEpgHTaS4VEQ0fQTw,"4115 N 19th Ave Phoenix, AZ 85015",AZ,-112.0998877,4.5,33.4956214,TRUE,"[u'Caribbean', u'Restaurants']"
Phoenix,19,T.G.I. Friday's,[],business,fq3TCuBBaKtRnibcSoRHpQ,"2501 W. Happy Valley Road Phoenix, AZ 85027",AZ,-112.1142778,4,33.7110102,TRUE,"[u'American (New)', u'Restaurants']"
Tempe,4,Ichiban Korean BBQ & Sushi,[],business,MxTa2R2tSXFRt6UPwmeTdg,"1324 S Rural Rd Tempe, AZ 85281",AZ,-111.9262937,3,33.4143548,FALSE,"[u'Korean', u'Japanese', u'Barbeque', u'Restaurants']"
Phoenix,4,Copper Kettle Curry House,[],business,J1SyE2sa9WHPHm-aOSl3fg,"5064 E Mcdowell Rd Phoenix, AZ 85008",AZ,-111.9728452,3,33.4656565,TRUE,"[u'Indian', u'Pakistani', u'Restaurants']"
Phoenix,22,Viet Kitchen,[],business,NLVcGseUhgQdABs1mIYk8g,"114 W Adams St Phoenix, AZ 85003",AZ,-112.075503,3,33.449553,FALSE,"[u'Vietnamese', u'Restaurants']"
Peoria,89,Grimaldi's Pizzeria,[],business,r4AG1WXCRWkZKQctrcy9FA,"9788 W Northern Ave Peoria, AZ 85345",AZ,-112.2707018,3.5,33.5515304,TRUE,"[u'Pizza', u'Restaurants']"
Tempe,41,Jersey Mike's Subs,[],business,vA9dAPd9fQt_3HqZylKfVA,"555 N Scottsdale Rd Ste 103 Tempe, AZ 85281",AZ,-111.9252882,3.5,33.4342595,TRUE,"[u'Sandwiches', u'Restaurants']"
Apache Junction,7,The Sandwich Shoppe,[],business,J1uE5HFQWD30Rw897mGhEQ,"28 N Ironwood Dr Ste 4 Apache Junction, AZ 85120",AZ,-111.563683,4.5,33.415619,TRUE,"[u'Sandwiches', u'Restaurants']"
Mesa,34,TQLA,[],business,Q5ZD7ZAs96NAVblFDV476g,"1840 S Val Vista Dr Mesa, AZ 85204",AZ,-111.754566,3.5,33.381723,TRUE,"[u'American (New)', u'Mexican', u'Restaurants']"
Gilbert,66,Black Bear Diner,[],business,1F-pelV0fTduYV_vCrvjLA,"1809 E. Baseline Road Gilbert, AZ 85233",AZ,-111.7925535,3.5,33.3786853,TRUE,"[u'American (New)', u'Diners', u'Restaurants']"
Scottsdale,97,SOL Mexican Cocina,[],business,nFo_63pTr-4ZhakuaRFOCA,"15323 N Scottsdale Rd Ste 195 Scottsdale, AZ 85254",AZ,-111.9258843,3.5,33.6177796,TRUE,"[u'Mexican', u'Restaurants']"
Casa Grande,5,Denny's Restaurant,[],business,Mx_IcFzTaPiPMm5SQY743w,"1851 E Florence Boulevard Casa Grande, AZ 85222",AZ,-111.7080593,3,32.879529,TRUE,[u'Restaurants']
Glendale,75,Tandoori Times 2 Indian Bistro,[],business,6VRbbNQe5ouWmwsMebUMkg,"5626 W Bell Rd Ste A-103 Glendale, AZ 85308",AZ,-112.1798866,4,33.6390345,TRUE,"[u'Indian', u'Restaurants']"
Phoenix,20,Tanked Fish Sushi,[],business,oMw1SaH_zEbOOufTsGuk6w,"4855 E Warner Dr Phoenix, AZ 85073",AZ,-111.978279,3.5,33.331773,FALSE,"[u'Sushi Bars', u'Japanese', u'Restaurants']"
Mesa,6,Red Brick Pizza,[],business,qXNDOT15YefmozPnrbZJGg,"1041 N Dobson Rd Ste 102 Mesa, AZ 85201",AZ,-111.8432236,3,33.43172785,FALSE,"[u'Fast Food', u'Pizza', u'Restaurants']"
Phoenix,3,Filiberto's Mexican Food,[],business,ZhwoNt7dU6iA_wKmwe6qQA,"2010 E. Thunderbird Rd Phoenix, AZ 85022",AZ,-112.0387648,3,33.5972371,TRUE,"[u'Mexican', u'Restaurants']"
Tempe,56,Chill,[],business,tV97OH1LK00kUcX0Jig-sQ,"3141 S McClintock Dr Ste 10 Tempe, AZ 85282",AZ,-111.9088938,4.5,33.3947699,FALSE,"[u'Food', u'Ice Cream & Frozen Yogurt', u'Vegan', u'Restaurants']"
Tempe,57,Tilted Kilt Pub & Eatery,[],business,drqCrnSqtGffJ1z60aWkxg,"660 West Warner Road Tempe, AZ 85284",AZ,-111.9487344,3,33.334824,TRUE,"[u'Bars', u'American (Traditional)', u'Sports Bars', u'Nightlife', u'Chicken Wings', u'Restaurants']"
Tempe,26,Flaming Kabob,[],business,HkSyssTd5_QNNeGI0-ltTg,"921 E University Dr Tempe, AZ 85281",AZ,-111.9250202,3.5,33.4217708,TRUE,"[u'Middle Eastern', u'Restaurants']"
Phoenix,4,Mariscos Chihuahua,[],business,FljU76i8DYJbNlpibaieGw,"1834 W Indian School Rd Phoenix, AZ 85015",AZ,-112.099296,4.5,33.4953239,TRUE,"[u'Mexican', u'Restaurants']"
Phoenix,3,Tatum's Restaurant,[],business,ANeui7NJRkGtrOshX0610w,"4415 E Paradise Village Pkwy S Phoenix, AZ 85032",AZ,-111.985658,3.5,33.595945,TRUE,[u'Restaurants']
Scottsdale,4,Saffron Deli & Cafe,[],business,dm5T6_GSQdvjJ0ArwBfdVQ,"15689 N Hayden Rd Ste C3 Scottsdale, AZ 85260",AZ,-111.8956554,3.5,33.6272358,TRUE,"[u'Greek', u'Delis', u'Restaurants']"
Phoenix,17,Carlos O'brien's Mexican Restaurant,[],business,fuQO9wlHPuFBYGKjgN0yNg,"1133 E Northern Ave Phoenix, AZ 85020",AZ,-112.0571921,3,33.5526442,TRUE,"[u'Mexican', u'Restaurants']"
Phoenix,5,McDonald's,[],business,_pw-OnDpCe9XM0rDVvTUMg,"1905 W Northern Ave Phoenix, AZ 85021",AZ,-112.0998914,4.5,33.5530705,TRUE,"[u'Burgers', u'Fast Food', u'Restaurants']"
Tempe,9,Carl's Jr,[],business,lJcXm5UJ2yAGcX6hUN2kfg,"1519 W Baseline Rd Tempe, AZ 85283",AZ,-111.9642112,3,33.3781238,TRUE,"[u'Burgers', u'Restaurants']"
Chandler,37,Sandella's Flatbread Cafe,[],business,cc9KFNrcY9gA7t9D1a3FpA,"6050 W Chandler Blvd Unit 4 Chandler, AZ 85226",AZ,-111.9470658,4,33.3054251,TRUE,"[u'Sandwiches', u'Restaurants']"
Phoenix,24,Swensen's Grill &  Ice Cream Parlor,[],business,WoJrHOtrQ5R4jx80GwlnxA,"10450 N 28th Dr Phoenix, AZ 85051",AZ,-112.1220526,3,33.58154987,TRUE,"[u'Food', u'Ice Cream & Frozen Yogurt', u'American (Traditional)', u'Restaurants']"
Mesa,11,Red Robin America's Gourmet Burgers & Spirits,[],business,-GYx5GAx_-4XEsn7mFwdkA,"1636 S Stapley Drive Mesa, AZ 85204",AZ,-111.8059007,2.5,33.3838835,TRUE,"[u'Burgers', u'Restaurants']"
Tempe,18,Guerrero's,[],business,0yfN4bdKZfkFSXseB2kOBg,"2148 E Apache Blvd Tempe, AZ 85281",AZ,-111.8941101,4,33.4149725,TRUE,"[u'Mexican', u'Restaurants']"
Apache Junction,4,Erickbertos Mexican Resturant,[],business,lCh6iBHtgrDvPc_ZUwNRRw,"11550 E Apache Trl Apache Junction, AZ 85120",AZ,-111.582073,4,33.41543959,TRUE,"[u'Food', u'Ethnic Food', u'Specialty Food', u'Mexican', u'Restaurants']"
Scottsdale,64,T. Roosevelt's Tavern,[],business,UmhTiNOKareQDP7D9aAnKw,"4175 N Goldwater Blvd Scottsdale, AZ 85251",AZ,-111.9302928,4,33.4960515,TRUE,"[u'Bars', u'Restaurants', u'Nightlife', u'Italian']"
Phoenix,3,Big Burrito Mexican Food,[],business,4780MrclJEFGp8MDf9_U2g,"1919 W Dunlap Ave Phoenix, AZ 85021",AZ,-112.1008401,4.5,33.5676107,FALSE,"[u'Mexican', u'Restaurants']"
Chandler,3,La Victoria Mexican Grill,[],business,8efc4wqa0XDt3_z2R7jaGA,"757 E Chandler Blvd Chandler, AZ 85225",AZ,-111.828714,4.5,33.305807,TRUE,"[u'Mexican', u'Restaurants']"
Mesa,45,Com Tam Thuan Kieu,[],business,3H2ttTM2aSIaZ6FTjHwDQQ,"66 S Dobson Rd Ste 141 Mesa, AZ 85202",AZ,-111.875779,4,33.413158,TRUE,"[u'Vietnamese', u'Restaurants']"
Phoenix,17,The Pizza Buffet,[],business,xczdDnDIUoVZ2ILT9nEvPA,"3208 E Bell Rd Phoenix, AZ 85032",AZ,-112.0130547,3,33.6406929,TRUE,"[u'Pizza', u'Buffets', u'Restaurants']"
Scottsdale,23,Salty Senorita North,[],business,kYkuqU9wJS01L8q4d2nTTg,"14950 N Northsight Blvd Scottsdale, AZ 85257",AZ,-111.897898,2,33.621505,FALSE,"[u'American (Traditional)', u'Mexican', u'Restaurants']"
Phoenix,5,Wildberri,[],business,K869zHqORZUhpbDOxsspuw,"401 E Bell Rd Ste 23 Phoenix, AZ 85022",AZ,-112.0684149,3,33.638291,FALSE,"[u'American (New)', u'Restaurants']"
Phoenix,28,Park Central Deli,[],business,oXUceqbZEAKclrIXE-erYw,"3110 N Central Ave Ste 175 Phoenix, AZ 85012",AZ,-112.069119,3,33.511391,TRUE,"[u'Delis', u'Restaurants']"
Tempe,8,Maloney's On Campus,[],business,G3zvxtzN46-rfTTqwfhqLg,"955 E University Dr Tempe, AZ 85281",AZ,-111.924319,3,33.421314,FALSE,"[u'Bars', u'American (Traditional)', u'Nightlife', u'Restaurants']"
Tempe,46,Little India,[],business,3YrW77yHkp3JIyTGYCS_Nw,"1813 E Baseline Rd Tempe, AZ 85281",AZ,-111.9078462,4,33.3773608,TRUE,"[u'Grocery', u'Food', u'Ethnic Food', u'Indian', u'Specialty Food', u'Restaurants']"
Chandler,10,Port of Subs 188,[],business,x84ho2JtSqp3ZJ624Gj7kA,"2551 W Queen Creek Rd Chandler, AZ 85248",AZ,-111.886316,3.5,33.261284,TRUE,"[u'Sandwiches', u'Restaurants']"
Tempe,37,India Grill,[],business,rbeBreN9KOWipTUQsmiQ9g,"325 W Elliot Rd Ste 101 Tempe, AZ 85284",AZ,-111.944983,4,33.350068,TRUE,"[u'Indian', u'Buffets', u'Restaurants']"
Phoenix,8,Einstein Bros Bagels,[],business,CAhyiTcoGeAqaP018FX0cQ,"1820 W Northern Ave Phoenix, AZ 85021",AZ,-112.0980631,3.5,33.5538282,TRUE,"[u'Food', u'Bagels', u'Delis', u'Restaurants']"
Phoenix,16,Baja Fresh Mexican Grill,[],business,OT0gFIAr_c-d3i-IQ6TZQg,"1615 E Camelback Rd Phoenix, AZ 85016",AZ,-112.0468549,4,33.5089687,TRUE,"[u'Mexican', u'Restaurants']"
Scottsdale,4,Mary Elaine's,[],business,z0hUNe3YiSknxs1HJZZDtg,"6000 E Camelback Rd Scottsdale, AZ 85250",AZ,-111.9514403,5,33.5019519,FALSE,"[u'Jazz & Blues', u'Arts & Entertainment', u'Nightlife', u'French', u'Restaurants']"
Phoenix,3,Vincent's Famous Pizza & Restaurant,[],business,lTk4l6YgxNXNaMCD9mcD6Q,"4905 East Ray Rd Ste 104 Phoenix, AZ 85044",AZ,-111.9778748,4.5,33.3193779,TRUE,"[u'Pizza', u'Restaurants']"
Phoenix,16,Paradise Bakery,[],business,JJGkhOmfOFamPbCAaRKPPw,"21001 N Tatum Boulevard Suite 1630 Phoenix, AZ 85050",AZ,-111.9746066,3.5,33.678615,TRUE,"[u'Bakeries', u'Food', u'Breakfast & Brunch', u'Sandwiches', u'Restaurants']"
Tempe,3,Extreme Pita,[],business,RDYOZGZ2DTor_jAOy9FwGw,"3141 S McClintock Drive Tempe, AZ 85282",AZ,-111.9088938,3,33.3947699,FALSE,[u'Restaurants']
Gilbert,12,Chipotle Mexican Grill,[],business,lciZhyp_xwKNBOVyzxqhbg,"3757 S Gilbert Rd Ste 110 Gilbert, AZ 85297",AZ,-111.7888601,3.5,33.2818543,TRUE,"[u'Tex-Mex', u'Restaurants']"
